[{"lat":"47.9730862","lng":"7.831522099999999","id":3845392,"name":"testshop","phone":"0761-45367918","email":"dahn@greenblut.com","web":"https:\/\/greenblut.com","webdisplay":"greenblut.com","tagsvalue":"reise,accesoires","tags":[{"tag":"reise"},{"tag":"accesoires"}],"address":"Ziegelweg","address2":"19","country":"Germany","state":"Baden-Wuerttemberg","city":"Freiburg","postal":"79100","priority":1},{"lat":"51.9404207","lng":"7.1696095","id":6572570,"name":"Akzent im Raum","phone":"02541-5766","email":"merz@akzent-im-raum.de","address":"Bahnhofstr. 46","city":"Coesfeld","postal":"48653","priority":1},{"lat":"53.2650435","lng":"10.4190516","id":6572572,"name":"Ackermann-Leder","phone":"04131-38558","email":"sedlacek@ackermann-leder.de","address":"Goseburgstr. 27","city":"Lüneburg","postal":"21339","priority":1},{"lat":"49.4449652","lng":"7.7705505","id":6572576,"name":"AUGENWEIDEN","phone":"0631-3612904","email":"neumahrc@gmx.de","address":"Schillerstraße 8","city":"Kaiserslautern","postal":"67655","priority":1},{"lat":"51.2843961","lng":"7.294746","id":6572578,"name":"art & trend Accessoires & individuelle","phone":"02336-5530","address":"Bernd Silbersiepe","city":"Schwelm","postal":"58332","priority":1},{"lat":"47.3456369","lng":"11.7083221","id":6572579,"name":"Angerer","phone":"0043-524263298","email":"Eva@Taschen-Angerer.com","address":"Franz-Josef-Strasse 11","city":"Schwaz","postal":"6130","priority":1},{"lat":"53.8917946","lng":"11.4613901","id":6572581,"name":"Akzente","phone":"0151-56631771","email":"gine.kaufmann@gmail.com","address":"Lübsche Straße 46","city":"Wismar","postal":"23966","priority":1},{"lat":"48.4892726","lng":"9.6876822","id":6572583,"name":"Karl Bandle","phone":"07333-5164","email":"Brandle.raumausstattung@t-online.de","address":"Bahnhofstr.8","city":"Laichingen","postal":"89150","priority":1},{"lat":"50.6829962","lng":"8.3037665","id":6572585,"name":"Rössner GmbH","phone":"02772-574539 Thilo Rössner","email":"info@roessner-gmbh.de","address":"Hauptstr. 51-53","city":"Herborn","postal":"35745","priority":1},{"lat":"50.6300165","lng":"12.8099085","id":6572587,"name":"Lederwaren Böhm","phone":"037754-77125","email":"hvboehm@gmx.de","address":"Lößnitzer Str.2","city":"Zwönitz","postal":"08297","priority":1},{"lat":"47.2142705","lng":"14.829067","id":6572589,"name":"Breser Lederwaren","phone":"0043-3512-71379","address":"Hauptplatz 11","city":"Knittelfeld","postal":"8720","priority":1},{"lat":"50.5439795","lng":"7.1373971","id":6572590,"name":"Maria Osterhoff-Boes","phone":"02641-26946","email":"leder-boes@t-online.de","address":"Poststr. 29","city":"Bad Neuenahr","postal":"53474","priority":1},{"lat":"47.947991","lng":"11.1004099","id":6572592,"name":"Bagages Taschen & Schuhe","phone":"08807 946140\/0160 96408377","email":"info@bagages.de","address":"Herrenstr. 20","city":"Dießen","postal":"86911","priority":1},{"lat":"53.56224","lng":"9.96238","id":6572594,"name":"baqu home & style","phone":"040-433814","email":"baqu.home@hotmail.com","address":"Susannenstraße 39-41","city":"Hamburg","postal":"20357","priority":1},{"lat":"48.9012349","lng":"8.6674548","id":6572595,"name":"Bag Store","phone":"07231-5658766","email":"toloneg@yahoo.de","address":"Wilhelm-Becker-Str. 15","city":"Pforzheim","postal":"75179","priority":1},{"lat":"49.8711285","lng":"8.6555107","id":6572597,"name":"HIDDEN","phone":"06151-9514990","email":"cbarkhof@hiddenhome.de","address":"An der Stadtkirche 6","city":"Darmstadt","postal":"64283","priority":1},{"lat":"48.1352017","lng":"11.5795498","id":6572599,"name":"beauty nature München GmbH","phone":"089-24231233","email":"office-muenchen@beautyandnature.de","address":"Westenriederstr. 35\/1","city":"München","postal":"80331","priority":1},{"lat":"52.48935","lng":"13.39103","id":6572600,"name":"bagAge Battos GmbH","phone":"030-6938916","email":"info@bag-age.de","address":"Bergmannstr. 13","city":"Berlin","postal":"10961","priority":1},{"lat":"47.329831","lng":"8.1147283","id":6572603,"name":"Sattlerei Bertschi AG","phone":"0041-627763233","email":"sattlerei.bertschi@zik5723.ch","address":"Wyuentalstr. 24","city":"Teufenthal","postal":"5723","priority":1},{"lat":"51.8125626","lng":"5.8372264","id":6572605,"name":"Bofligt","phone":"0031-243888043","address":"Van Welderanstraat 52 a","city":"Nijmegen MN","postal":"6511","priority":1},{"lat":"52.0779718","lng":"4.3074133","id":6572606,"name":"Berlage Kantoorvakhandel","phone":"0031-703639970","email":"info@berlagekvh.nl","address":"Prinsestraat 1-3","city":"CA Den Haag","postal":"2513","priority":1},{"lat":"51.3280304","lng":"12.3743605","id":6572608,"name":"Beauty & nature Leipzig GmbH","phone":"0341-22541415","email":"schwarz@beautyandnature.de","address":"Karl-Liebknecht-Str. 27","city":"Leipzig","postal":"04107","priority":1},{"lat":"48.3405238","lng":"7.8726518","id":6572609,"name":"Lederhaus Bohnet OHG","phone":"07821-24218","email":"lederhaus.bohnet@gmx.de","address":"Marktstr.22","city":"Lahr","postal":"77933","priority":1},{"lat":"50.7961849","lng":"7.2067427","id":6572611,"name":"Modewerkstatt Bachem","phone":"02241-66378","email":"pr@bernstein-verlag.de","address":"Markt 44a","city":"Siegburg","postal":"53721","priority":1},{"lat":"51.8542","lng":"8.29724","id":6572613,"name":"Börger Elektrotechnik GmbH","phone":"05242-94560","email":"sylvia.boerger@elektro-boerger.de","address":"Gütersloher Str. 18","city":"Rheda-Wiedenbrück","postal":"33378","priority":1},{"lat":"47.597063","lng":"11.0643046","id":6572615,"name":"Bebba Naturtextilien","phone":"08822-922555","email":"petra.maderspacher@web.de","address":"Dorfstr. 32","city":"Oberammergau","postal":"82487","priority":1},{"lat":"49.8722614","lng":"8.6458201","id":6572617,"name":"Buttmi-Schuhe","phone":"06151-294484","email":"kontakt@buttmi-schuhe.de","address":"Rheinstr. 37","city":"Darmstadt","postal":"64283","priority":1},{"lat":"51.6684954","lng":"6.2726526","id":6572618,"name":"Geschenkideen","phone":"02825-7010","email":"geschenkideen-h.binn@t-online.de","address":"Mühlenstrasse 5","city":"Uedem","postal":"47589","priority":1},{"lat":"47.9932979","lng":"7.8522851","id":6572620,"name":"Blickfang","phone":"0761-38433511","email":"mail@blickfang-freiburg.de","address":"Gerberau 42","city":"Freiburg","postal":"79098","priority":1},{"lat":"47.85193","lng":"8.77075","id":6572621,"name":"Daniela Buhl Lederwaren","phone":"07733 8801","email":"daniela-buhl-taschen@t-online.de","address":"Hauptstraße 25\/27","city":"Engen","postal":"78234","priority":1},{"lat":"53.3048698","lng":"7.7454169","id":6572623,"name":"Bruns Lederwaren","phone":"04956 677","email":"rbruns@ewetel.net","address":"Ostertorstr. 37","city":"Uplengen - Remels","postal":"26670","priority":1},{"lat":"51.2455358","lng":"4.4474215","id":6572624,"name":"BRU - Lederwaren","address":"Bredabaan 536","city":"Merksem","postal":"2170","priority":1},{"lat":"52.5814461","lng":"13.4055108","id":6572627,"name":"Blümel Lederwaren","phone":"030 4762807","address":"Blankenburger Str. 8","city":"Berlin","postal":"13156","priority":1},{"lat":"48.6204514","lng":"10.2466103","id":6572628,"name":"Schuhhaus Hermann Brender","phone":"07322 5362","email":"schuhhaus@brender.de","address":"Marktstr. 54","city":"Giengen\/Brenz","postal":"89537","priority":1},{"lat":"53.9420092","lng":"14.1878873","id":6572630,"name":"Behrings Lederwaren","phone":"038378 28263","email":"matthias-w.kretschmer@web.de","address":"Seestraße 19","city":"Seebad Ahlbeck","postal":"17419","priority":1},{"lat":"52.50847","lng":"13.49704","id":6572632,"name":"Annegret Biernoth","phone":"030 5211030","email":"annegret.biernoth@web.de","address":"Weitling Str. 29","city":"Berlin","postal":"10317","priority":1},{"lat":"52.60499","lng":"11.86239","id":6572634,"name":"Höltl & Schaar GbR Lederwaren","phone":"03931-6891878 \/ 4937777","email":"birgit@ichmagtaschen.de","address":"Breite Straße 10","city":"Stendal","postal":"39576","priority":1},{"lat":"50.5954046","lng":"12.6415417","id":6572636,"name":"Böhm Lederwaren","phone":"03772 22517","address":"Markt 5","city":"Schneeberg","postal":"08289","priority":1},{"lat":"51.2158724","lng":"4.4022302","id":6572638,"name":"Fraya - Charlotte bvba","email":"c.malta@charlotte-willem.be","address":"Oudaan 3","city":"Antwerpen","postal":"2000","priority":1},{"lat":"47.9935044","lng":"7.8512953","id":6572639,"name":"Cartola Papeterie","phone":"0761-39900+ Fax","email":"edithvonknobloch@arcor.de","address":"Gerberau 11","city":"Freiburg","postal":"79098","priority":1},{"lat":"51.194278","lng":"6.4342387","id":6572642,"name":"La Casa","phone":"02161-206924\/0172-2512573","email":"info@lacasa-wohnen.de","address":"Wallstr.1","city":"Mönchengladbach","postal":"41061","priority":1},{"lat":"54.7814994","lng":"9.4356581","id":6572643,"name":"CONTOR-Das Designhaus","phone":"0461-1826220","email":"info@contor-design.com","address":"Rote Strasse 24","city":"Flensburg","postal":"24937","priority":1},{"lat":"49.4501374","lng":"11.0764456","id":6572646,"name":"Crämer & Co. GmbH","phone":"0911-205557-0","email":"nico.creamer@creamerco.de","address":"Breite Gasse 18","city":"Nürnberg","postal":"90402","priority":1},{"lat":"51.4408747","lng":"7.0062669","id":6572647,"name":"c o b","phone":"0201-74946996, 56008494","email":"meike@cob-essen.com","address":"Rüttenscheider Str. 34b","city":"Essen","postal":"45128","priority":1},{"lat":"41.3821448","lng":"2.1762199","id":6572649,"name":"Calpa","phone":"0034-93-3184030","email":"bossesdepellcalpa@gmail.com","address":"c\/ Ferran 53","city":"Barcelona","postal":"08002","priority":1},{"lat":"48.4974645","lng":"10.1203278","id":6572651,"name":"Chicolino","phone":"07345-236910","email":"chicolinofashion@t-online.de","address":"Hindenburgstraße 17","city":"Langenau","postal":"89129","priority":1},{"lat":"53.6028004","lng":"9.47665","id":6572652,"name":"J. B. Cording","phone":"04141 2769","address":"Burgstraße 4","city":"Stade","postal":"21682","priority":1},{"lat":"51.7632556","lng":"7.8897707","id":6572654,"name":"Dahlhaus Lederwaren","phone":"02382-2737","email":"lederwaren.dahlhaus.hoeltgen@gmail.com","address":"Weststraße 62","city":"Ahlen","postal":"59227","priority":1},{"lat":"49.7443304","lng":"8.1144399","id":6572656,"name":"Dörrhöfer Lederwaren","phone":"06731 3064","email":"info@lederwaren-doerrhoefer.de","address":"St.-Georgenstraße 42","city":"Alzey","postal":"55232","priority":1},{"lat":"49.7032527","lng":"7.3251845","id":6572658,"name":"August Dampel Lederwaren","phone":"06781 24370","email":"g.enke@freenet.de","address":"Hauptstraße 376","city":"Idar-Oberstein","postal":"55743","priority":1},{"lat":"50.5836314","lng":"8.6686897","id":6572659,"name":"Dimension Inneneinrichtung","phone":"0641-77829","address":"Westanlage 39","city":"Gießen","postal":"35390","priority":1},{"lat":"51.9043975","lng":"7.6449065","id":6572661,"name":"duo Schenken + Wohnen","phone":"02501-24000","email":"info@duo-hiltrup.de","address":"Marktallee 45","city":"Münster","postal":"48165","priority":1},{"lat":"50.1112714","lng":"8.6848794","id":6572662,"name":"Designer's House GmbH","phone":"069-20095","email":"c.kayser@designershouse.de","address":"Domstrasse 2","city":"Frankfurt","postal":"60311","priority":1},{"lat":"50.7383813","lng":"7.9676872","id":6572663,"name":"DAS GLASHAUS","phone":"02743-4562","email":"glashaus-daaden@t-online.de","address":"Im Schützenhof","city":"Daaden","postal":"57567","priority":1},{"lat":"48.8316207","lng":"9.326033","id":6572665,"name":"Dietrich KG","phone":"07151 22643","email":"ingrid.dietrich@dietrichleder.de","address":"Beinsteinerstr. 24","city":"Waiblingen","postal":"71334","priority":1},{"lat":"51.8341174","lng":"12.2443287","id":6572667,"name":"Giersdorf Lederwaren","phone":"0340-2211371","email":"taschenwelt@web.de","address":"Kavalierstr. 49","city":"Dessau-Anhalt","postal":"06844","priority":1},{"lat":"52.3697754","lng":"13.1338041","id":6572669,"name":"Ehlers Lederwaren","phone":"0331 621349","email":"ehlers.lederwaren@yahoo.de","address":"Stern Center Potsdam","city":"Potsdam","postal":"14480","priority":1},{"lat":"53.6282574","lng":"11.4083171","id":6572671,"name":"Leder Ehlers GmbH","phone":"0385-5508260+ Fax","email":"lederehlers@online.de","address":"Marienplatz 5-6","city":"Schwerin","postal":"19053","priority":1},{"lat":"48.9811184","lng":"8.3715377","id":6572673,"name":"Erhardt am Ludwigsplatz","phone":"0721-9124414","email":"calmbach-knopf@erhardt-buerowelt.de","address":"Kleinoberfeldstr. 7","city":"Karlsruhe","postal":"76135","priority":1},{"lat":"49.7938393","lng":"9.9287175","id":6572675,"name":"Eckhaus Wohnaccessoires","phone":"0931-12001","email":"info@eckhaus-wuerzburg.de","address":"Langgasse 8","city":"Würzburg","postal":"97070","priority":1},{"lat":"48.8019006","lng":"9.015566","id":6572677,"name":"Sigrid Etzold","phone":"07152-21396+ Fax","address":"Marktplatz 28","city":"Leonberg","postal":"71229","priority":1},{"lat":"50.5311722","lng":"12.1050455","id":6572680,"name":"Im Plauenpark","phone":"03741-3831706","email":"s.dejmek@dietaschenwelt.de","address":"Alte Jösznitzer Str. 30","city":"Plauen, Vogtl","postal":"08525","priority":1},{"lat":"48.30733","lng":"9.24449","id":6572681,"name":"Eisele Raumausstattung","phone":"07124-2821","address":"Marktstr. 16","city":"Trochtelfingen","postal":"72818","priority":1},{"lat":"48.7846649","lng":"9.1599332","id":6572683,"name":"Eckhaus","phone":"0711-90713880","email":"eckhaus.design@t-online.de","address":"Hölderlinstraße 40","city":"Stuttgart","postal":"70193","priority":1},{"lat":"51.3139111","lng":"9.4917326","id":6572684,"name":"Etuis - Mertl","phone":"0561-16626","email":"info@etuis-mertl.de","address":"Wilhelmstrasse 13","city":"Kassel","postal":"34117","priority":1},{"lat":"50.9302985","lng":"11.581285","id":6572686,"name":"eigenlauf","phone":"03641-636500","email":"laden@eigenlauf.de","address":"Wagnergasse 31","city":"Jena","postal":"07743","priority":1},{"lat":"46.3121261","lng":"11.2702341","id":6572688,"name":"Ethika","phone":"0039-0471-813227 falsche Nr.","email":"ethika.bz@gmail.com","address":"Lauben 23","city":"Neumarkt","postal":"39044","priority":1},{"lat":"47.2070962","lng":"7.5385491","id":6572690,"name":"Elke Keck's Liebesgeschichten","phone":"0041-763077076","email":"zzkeck@aol.com","address":"Theatergasse 24","city":"Solothurn","postal":"4500","priority":1},{"lat":"51.1302936","lng":"4.5725247","id":6572692,"name":"ELVI Lederwaren","phone":"0032-34802173\/0032-32332731","email":"elvilier@hotmail.com","address":"Rechtestraat 21","city":"Lier","postal":"2500","priority":1},{"lat":"51.5317469","lng":"9.9379036","id":6572694,"name":"Folio Papeterie","phone":"0551-58389 + Fax","email":"info@folio-papeterie.de","address":"Kurze Geismarstr. 32","city":"Göttingen","postal":"37073","priority":1},{"lat":"51.48432","lng":"11.96629","id":6572696,"name":"Lederwahn","phone":"0345-2002933","email":"lederwahn@gmx.de","address":"Kleine Ulrichstr. 2","city":"Halle","postal":"06108","priority":1},{"lat":"48.72934","lng":"9.2515527","id":6572698,"name":"Geiger & Schlesinger GmbH","phone":"0711-412087","address":"Kirchheimer Str. 18","city":"Ostfildern","postal":"73760","priority":1},{"lat":"52.5169959","lng":"13.4399255","id":6572700,"name":"Fotopioniere L@ N GmbH","phone":"030-42085460","email":"andreas-kesberger@fotopioniere.com","address":"Karl-Marx-Allee 87","city":"Berlin","postal":"10243","priority":1},{"lat":"49.6425934","lng":"8.641192","id":6572701,"name":"Herbert Fischer e.K.","phone":"06252-6588","email":"info@fischer-raum.de","address":"Friedrichstraße 15","city":"Heppenheim","postal":"64646","priority":1},{"lat":"50.6258688","lng":"6.9525307","id":6572703,"name":"Jakob Fingerhuth GmbH","phone":"02226- 2208","address":"Vor dem Voigtstor 7","city":"Rheinbach","postal":"53359","priority":1},{"lat":"48.7630689","lng":"8.3381543","id":6572705,"name":"Fischer GmbH","phone":"07224-3323","email":"sporthausfischer@hotmail.com","address":"Igelbachstr. 9","city":"Gernsbach","postal":"76593","priority":1},{"lat":"52.2899","lng":"11.41196","id":6572706,"name":"Thomas Feustel","phone":"03904 71806","email":"inleder.feustel@t-online.de","address":"Holzmarktstraße 20","city":"Haldensleben","postal":"39340","priority":1},{"lat":"49.751791","lng":"6.6378258","id":6572708,"name":"Flax Naturtextil","phone":"0651 48593","email":"anke.glatt@gmx.de","address":"Neustraße 76","city":"Trier","postal":"54290","priority":1},{"lat":"51.9414017","lng":"13.8976575","id":6572711,"name":"Jens Grötschel","phone":"03546 7312","email":"spielwarengroetschel@t-online.de","address":"Hauptstraße 22","city":"Lübben","postal":"15907","priority":1},{"lat":"50.12532","lng":"8.82724","id":6572713,"name":"Götz, Karl Lederwaren","phone":"06108-74178,66260","address":"Gutenbergstr 30","city":"Mühlheim","postal":"63165","priority":1},{"lat":"48.695014","lng":"8.1359282","id":6572715,"name":"gecco","phone":"07223-2816595","email":"welcome@gecco-lifestyle.de","address":"Hauptstraße 38","city":"Bühl","postal":"77815","priority":1},{"lat":"47.8023837","lng":"7.6748647","id":6572716,"name":"Gedici Lederwaren","phone":"0160-94546691","email":"agedici70@hotmail.com","address":"Luisenstr. 16","city":"Badenweiler","postal":"79410","priority":1},{"lat":"52.409897","lng":"12.5607827","id":6572719,"name":"Carisma Lederwaren","phone":"03381-524366+Fax","address":"Hauptstr.19","city":"Brandenburg","postal":"14776","priority":1},{"lat":"53.9368388","lng":"10.3065356","id":6572721,"name":"GEFI-Lederwaren","phone":"04551-9082596","address":"Hamburger Str. 5","city":"Bad Segeberg","postal":"23795","priority":1},{"lat":"52.536995","lng":"13.4077114","id":6572723,"name":"GOD BLESS YOU","phone":"030-29666880\/01778642219","email":"info@god-bless-you.com","address":"Kastanienallee 31","city":"Berlin","postal":"10435","priority":1},{"lat":"53.55825","lng":"9.9712641","id":6572724,"name":"Glore Fashion Hamburg","phone":"040-35777650 \/ 040-36036220","email":"wiebke@glore-hamburg.de","address":"Marktstr. 31","city":"Hamburg","postal":"20357","priority":1},{"lat":"41.4018937","lng":"2.1573821","id":6572726,"name":"GreenLifeStyle","phone":"0034-931862010","email":"gls.greenlifestyle@gmail.com","address":"Torrent de I'Olla, 95","city":"Barcelona","postal":"08012","priority":1},{"lat":"51.25828","lng":"6.38794","id":6572728,"name":"Geschmacksache","phone":"02162-9183511\/02461-995580","email":"ngilani@t-online.de","address":"Hauptstr. 18-20","city":"Viersen","postal":"41747","priority":1},{"lat":"49.5461765","lng":"10.2280854","id":6572730,"name":"Gamstätter","phone":"09842 97844","email":"info@gamstaetter.de","address":"Würzburger Str. 24","city":"Uffenheim","postal":"97215","priority":1},{"lat":"52.1017088","lng":"12.8782","id":6572732,"name":"Sattlerei u. Lederwaren Mauer","phone":"033748-70398","address":"Berliner Chaussee 8a","city":"Treuenbrietzen","postal":"14929","priority":1},{"lat":"53.5409212","lng":"8.5838417","id":6572733,"name":"Peter Schinzel","phone":"0471-416812","email":"firma.p.schinzel@gmx.de","address":"Fährstraße 16","city":"Bremerhaven","postal":"27568","priority":1},{"lat":"51.9624331","lng":"7.6272956","id":6572735,"name":"Maria Harenberg GmbH & Co. KG","phone":"0251 42005","email":"info@leder-mode-harenberg.de","address":"Domplatz 38","city":"Münster","postal":"48143","priority":1},{"lat":"51.052967","lng":"7.840873","id":6572737,"name":"C. Josef Harnischmacher","phone":"02761 2455","email":"lederwaren-c.j.harnischmacher@t-online.de","address":"Westfälische Str. 1","city":"Olpe-Biggesee","postal":"57462","priority":1},{"lat":"50.53784","lng":"12.7835299","id":6572739,"name":"Eigensinn","phone":"03774-23892+ Fax","email":"info@eigensinn-schwarzenberg.de","address":"Markt 9","city":"Schwarzenberg","postal":"08340","priority":1},{"lat":"49.8207604","lng":"8.6451292","id":6572741,"name":"Galleria Grande","phone":"06151-9513334","email":"info@galleriagrande.de","address":"Heidelberger Landstr. 188","city":"Darmstadt-Eberstadt","postal":"64297","priority":1},{"lat":"51.769196","lng":"6.8390029","id":6572742,"name":"Einrichtungen-Hetkamp","phone":"02865-60940","email":"mode@hetkamp.de","address":"Weseler Str. 8","city":"Raesfeld","postal":"46348","priority":1},{"lat":"49.9481879","lng":"6.3287786","id":6572745,"name":"Hubor & Hubor GmbH","phone":"06522-92930","email":"wohnen@hubor.de","address":"Hauptstr. 1-2","city":"Mettendorf","postal":"54675","priority":1},{"lat":"50.775708","lng":"6.084881","id":6572746,"name":"van Hout partout","phone":"0241-5684984, 0178 5835445","email":"vanhoutpartout@arcor.de","address":"Hühnermarkt 19","city":"Aachen","postal":"52062","priority":1},{"lat":"52.3661948","lng":"4.8690715","id":6572748,"name":"Hoogstins","phone":"0031-206854600","email":"info@hoogstins.nl","address":"Kinkerstraat 115-119","city":"Amsterdam","postal":"1053DL","priority":1},{"lat":"50.735487","lng":"7.1008108","id":6572749,"name":"Lederwaren Maria Harenberg","phone":"0228 651833","email":"info@harenberg-bonn.de","address":"Sternstr.1","city":"Bonn","postal":"53175","priority":1},{"lat":"49.329393","lng":"12.1074767","id":6572750,"name":"Schwandorfer Tascheneck","phone":"09431 5108789","email":"info@tascheneck-schwandorf.de","address":"Friedr.-Ebert-Str.1","city":"Schwandorf","postal":"92421","priority":1},{"lat":"48.8926906","lng":"11.1826405","id":6572751,"name":"Christine Breböck","phone":"08421 5228","email":"gigi.breboeck@freenet.de","address":"Pfahlstraße 13","city":"Eichstätt","postal":"85072","priority":1},{"lat":"47.6607041","lng":"9.1737566","id":6572752,"name":"Lederwaren Hämmerle","phone":"07531 25212","email":"info@lederwaren-haemmerle.de","address":"Kanzleistr. 24","city":"Konstanz","postal":"78462","priority":1},{"lat":"50.9843039","lng":"12.4349911","id":6572753,"name":"Harbig - Leder","phone":"03447 314028","email":"Leder-Harbig@t-online.de","address":"Baderei 4","city":"Altenburg","postal":"04600","priority":1},{"lat":"51.1642507","lng":"13.4700079","id":6572755,"name":"Hempel Pelzhaus","phone":"03521 452860","email":"pelzhaus.hempel@t-online.de","address":"Burgstraße 8","city":"Meißen","postal":"01662","priority":1},{"lat":"51.6602701","lng":"6.967041","id":6572758,"name":"Hutmacher Lederwaren","phone":"02362-954872+Fax","address":"Recklinghäuserstr.24","city":"Dorsten","postal":"46282","priority":1},{"lat":"51.83333","lng":"10.7826715","id":6572760,"name":"Heindorf's Lederwaren","phone":"03943 634422\/ H. 0172 3512429","email":"akant@t-online.de","address":"Westernstraße 20","city":"Wernigerode","postal":"38855","priority":1},{"lat":"51.04485","lng":"13.7787015","id":6572762,"name":"Ivanov - Lederwaren","phone":"0351-3102466","address":"Borsbergstr. 29 c","city":"Dresden","postal":"01309","priority":1},{"lat":"53.57404","lng":"9.95953","id":6572764,"name":"Leder Israel GmbH","phone":"040-405664","email":"lederwaren@aol.com","address":"Schulweg 34-40","city":"Hamburg","postal":"20259","priority":1},{"lat":"54.3344435","lng":"10.13364","id":6572766,"name":"JOKER","phone":"0431-96434","email":"joker-kiel@arcor.de","address":"Holtenauer Straße 92","city":"Kiel","postal":"24105","priority":1},{"lat":"50.1049311","lng":"8.6870922","id":6572767,"name":"Ichwareindirndl","phone":"069-66127744, 0162 4868043","email":"jutta.heeg@ichwareindirndl.de","address":"Brückenstraße 52","city":"Frankfurt\/Main","postal":"60594","priority":1},{"lat":"50.9756371","lng":"10.3232914","id":6572769,"name":"Gerold Jakob Lederwaren","phone":"03691 216224","email":"lederwaren-jakob-mueller@t-online.de","address":"Querstr. 18","city":"Eisenach","postal":"99817","priority":1},{"lat":"49.3539278","lng":"8.1358118","id":6572771,"name":"Kunstwerk","phone":"06321-399745","email":"info@kunstwerk-neustadt.de","address":"Rathausstraße 4","city":"Neustadt","postal":"67433","priority":1},{"lat":"50.6595957","lng":"13.335967","id":6572773,"name":"Thomas Krampf","phone":"037360-73080","email":"thomas.krampf@t-online.de","address":"Bahnhofstraße 7","city":"Olbernhau","postal":"09526","priority":1},{"lat":"49.4210978","lng":"8.4294479","id":6572775,"name":"Kraushaar e.K.","phone":"06236 51272","email":"Kraushaar1891@t-online.de","address":"Speyerer Straße 6","city":"Neuhofen","postal":"67141","priority":1},{"lat":"49.8930043","lng":"10.889481","id":6572777,"name":"Kroack Reisegepäck","phone":"0951-70061-17\/0152-22000125","email":"kroack-lederwaren@arcor.de","address":"Kessler Str. 9","city":"Bamberg","postal":"96047","priority":1},{"lat":"51.9605046","lng":"7.624673","id":6572779,"name":"Der Riemenschneider","phone":"0251-48164004, 0521 96206840","email":"info@der-riemenschneider.de","address":"Rothenburg 20","city":"Münster","postal":"48143","priority":1},{"lat":"52.0191089","lng":"8.5324858","id":6572781,"name":"KATO","phone":"0521-5205151","email":"torsten-heising@arcor.de","address":"Gehrenberg 20","city":"Bielefeld","postal":"33602","priority":1},{"lat":"47.4844827","lng":"8.2067697","id":6572783,"name":"KÜNG Lederwaren","phone":"0041-564414541","email":"a.kueng@lederkueng.ch","address":"Hauptstr. 9","city":"Brugg","postal":"5200","priority":1},{"lat":"52.11045","lng":"8.16147","id":6572784,"name":"Leder am Kurpark","phone":"05424-2129833Ha 01731670057","email":"rw63@hotmail.de","address":"Salinenstrasse 2-6","city":"Bad Rothenfelde","postal":"49214","priority":1},{"lat":"47.236385","lng":"9.5985664","id":6572786,"name":"Kleidergrün","phone":"0043-650-4690606,3234072","email":"no2alike@gmx.at","address":"Neustadt 38","city":"Feldkirch","postal":"6800","priority":1},{"lat":"49.0198604","lng":"12.0906532","id":6572788,"name":"Kocon Boutique","phone":"0941-58612808","email":"Kocon-Boutique@t-online.de","address":"Ludwigstraße 6","city":"Regensburg","postal":"93047","priority":1},{"lat":"47.99361","lng":"7.85403","id":6572790,"name":"Leder + Form","phone":"0761-3196830od.35935","email":"info@leder-und-form.de","address":"Oberlinden 13","city":"Freiburg","postal":"79098","priority":1},{"lat":"51.9641869","lng":"7.6255164","id":6572792,"name":"Kleidsam","phone":"0251-4145551","email":"oska-muenster@kleidsam-bay.de","address":"Spiekerhof 40-42","city":"Münster","postal":"48143","priority":1},{"lat":"48.5667364","lng":"13.4319466","id":6572794,"name":"Kolibri GdbR","phone":"0851-36905","email":"info@kolibri-passau.de","address":"Delia Costa-Philipp,Marianne Schwägerl","city":"Passau","postal":"94032","priority":1},{"lat":"51.4551216","lng":"7.011406","id":6572795,"name":"Kösters in Essen GmbH","phone":"0201-233423","address":"i. Hagen 26","city":"Essen","postal":"45127","priority":1},{"lat":"53.1411894","lng":"8.2114335","id":6572797,"name":"Kaffee & Kleid","phone":"0441-35091330","email":"info@kaffee-und-kleid.de","address":"Kurwickstr. 6","city":"Oldenburg","postal":"26122","priority":1},{"lat":"51.66995","lng":"8.5887091","id":6572799,"name":"F. Klingenthal GmbH","phone":"05258-98550\/05221-9120","email":"Sabine.kordmoeller@klingenthal.com","address":"Franz-Kleine-Str. 21-25","city":"Salzkotten","postal":"33154","priority":1},{"lat":"49.962477","lng":"9.7643868","id":6572801,"name":"Kraft - Leder","phone":"09353 7476","email":"joachim.kraft@t-online.de","address":"Hauptstraße 21","city":"Karlstadt","postal":"97753","priority":1},{"lat":"47.2625704","lng":"11.4308086","id":6572803,"name":"Laner Lederwaren","phone":"0043-512-325712, 0676 3294319","email":"a.rist@schuhe-laner.at","address":"Amraser See Straße 56 a","city":"Innsbruck","postal":"6029","priority":1},{"lat":"51.1871276","lng":"10.0553166","id":6572811,"name":"Lieberknecht Lederwaren","phone":"05651-50896","email":"info@lwlk.de","address":"Stad 14","city":"Eschwege","postal":"37269","priority":1},{"lat":"54.0896109","lng":"12.1320206","id":6572812,"name":"Loupas Pelze & Leder","phone":"0381-4923555","email":"gloupas@t-online.de","address":"Lange Straße 35","city":"Rostock","postal":"18055","priority":1},{"lat":"49.7949181","lng":"9.9288383","id":6572814,"name":"Artisant Lederladen","phone":"0931-16484","email":"Lederladen@t-online.de","address":"Marktgasse 9","city":"Würzburg","postal":"97070","priority":1},{"lat":"53.5907169","lng":"9.9881049","id":6572816,"name":"Love it Green","phone":"040-65866955","email":"salm@loveitgreen.de","address":"Schrammsweg 4","city":"Hamburg","postal":"20249","priority":1},{"lat":"50.1447736","lng":"7.1663531","id":6572818,"name":"La Borsa Lederwaren","phone":"02671-910477","address":"Herrenstr. 12A","city":"Cochem","postal":"56812","priority":1},{"lat":"53.864431","lng":"10.6874081","id":6572820,"name":"Sattlerei Lau","phone":"0451-77728","email":"sattlerei-lau@web.de","address":"Aegidienstraße 31","city":"Lübeck","postal":"23552","priority":1},{"lat":"49.59513","lng":"8.46759","id":6572821,"name":"Laden am Dom","phone":"06206-52719","email":"soschatucker@gmx.de","address":"Domgasse 8","city":"Lampertheim","postal":"68623","priority":1},{"lat":"49.462629","lng":"8.9868008","id":6572823,"name":"Leder Exquisit Inh. Regina Bier","phone":"06271 3031","email":"lederexquisit@t-online.de","address":"Bahnhofstraße 1","city":"Eberbach","postal":"69412","priority":1},{"lat":"50.684966","lng":"10.913588","id":6572824,"name":"Ute Tober","phone":"03677 895060","email":"lederwaren.tober@gmx.de","address":"Straße des Friedens 12-14","city":"Ilmenau","postal":"98693","priority":1},{"lat":"50.8757872","lng":"12.0768616","id":6572825,"name":"Lederwaren Mischek","phone":"0365 8001770","email":"post@lederwaren-mischek.de","address":"Heinrichstraße 30","city":"Gera","postal":"07545","priority":1},{"lat":"48.3998151","lng":"9.9909409","id":6572827,"name":"Leder Laden Mai","phone":"0731-6023107","email":"info@lederladen-ulm.de","address":"Platzgasse 13","city":"Ulm","postal":"89073","priority":1},{"lat":"50.91126","lng":"13.03291","id":6572828,"name":"bag stage GmbH","phone":"(0)37 206 2849","email":"mail@b-s-online.de","address":"Freiberger Str. 58","city":"Frankenberg","postal":"09669","priority":1},{"lat":"49.9204792","lng":"8.4837092","id":6572831,"name":"Leder - Müller","phone":"06152 2654 + Fax","email":"leder_mueller@gmx.de","address":"Darmstädter Straße 12","city":"Groß Gerau","postal":"64521","priority":1},{"lat":"48.7030577","lng":"9.6526278","id":6572832,"name":"Münnich Lederwaren + Schirme","phone":"07161-812022","address":"Freihofstr. 26","city":"Göppingen","postal":"73033","priority":1},{"lat":"48.5329589","lng":"12.149741","id":6572834,"name":"Männer-Laden","phone":"0871-29475Ha017623413708","email":"info@maennerladen.de","address":"Altstadt 18","city":"Landshut","postal":"84028","priority":1},{"lat":"50.7375718","lng":"7.1045601","id":6572835,"name":"MAGAZIN Handelsgesellschaft","phone":"0228-3908352","email":"markus.steber@magazin.com","address":"Berliner Freiheit 32-34","city":"Bonn","postal":"53111","priority":1},{"lat":"52.47472","lng":"13.32388","id":6572837,"name":"designshop bauhaus dessau","phone":"030-20209315, 030 85405504","email":"designshop.bauhaus@muse-store.de","address":"Stubenrauchstr. 46","city":"Berlin","postal":"12161","priority":1},{"lat":"48.1404519","lng":"11.5745053","id":6572838,"name":"MAGAZIN Handelsgesellschaft","phone":"089-238880 31","email":"juergen.kellner@magazin.com","address":"Kardinal-Faulhaber-Str. 11","city":"München","postal":"80333","priority":1},{"lat":"49.4478085","lng":"11.0799491","id":6572840,"name":"mobilia neues museum","phone":"0911-364602  Ha.01728942110","email":"info@designshop-nm.de","address":"Luitpoldstr. 5","city":"Nürnberg","postal":"90402","priority":1},{"lat":"52.3808796","lng":"4.6343222","id":6572842,"name":"The Mill interior","phone":"0031-235318646","email":"themillinterior@gmail.com","address":"Koningstraat 18","city":"Haarlem TD","postal":"2011","priority":1},{"lat":"49.1006257","lng":"7.9951849","id":6572844,"name":"Bernd Malysiak","phone":"06343-939161","email":"info@juwelier-Malysiak.de","address":"Marktstr.13","city":"Bad Bergzabern","postal":"76887","priority":1},{"lat":"51.1617401","lng":"6.9996813","id":6572845,"name":"Männerwerk","phone":"0212-24925551","email":"mode@maenner-werk.de","address":"Düsseldorfer Straße 51","city":"Solingen","postal":"42697","priority":1},{"lat":"52.4712736","lng":"13.3362602","id":6572847,"name":"Maria Schumacher","phone":"030-85408699\/8511642","email":"ria-schumacher@gmx.de","address":"Hedwigstraße 1 a","city":"Berlin","postal":"12159","priority":1},{"lat":"48.2741143","lng":"8.8525682","id":6572849,"name":"die Melange","phone":"07433-9032992","email":"info@die-melange.de","address":"Ölbergstraße 2","city":"Balingen","postal":"72336","priority":1},{"lat":"51.7903163","lng":"11.1470022","id":6572850,"name":"Müller - Leder","phone":"03946 2489","email":"leder-mueller@gmx.de","address":"Steinweg 1 b","city":"Quedlinburg","postal":"06484","priority":1},{"lat":"49.410926","lng":"8.7012663","id":6572852,"name":"Leder - Meid","phone":"06221 22570","email":"leder-meid-heidelberg@t-online.de","address":"Hauptstraße 88","city":"Heidelberg","postal":"69117","priority":1},{"lat":"51.460378","lng":"12.6350552","id":6572854,"name":"Mönicke Lederwaren","phone":"03423 603975","email":"lederwaren-moenicke@gmx.de","address":"Torgauer Str. 31","city":"Eilenburg","postal":"04838","priority":1},{"lat":"51.33912","lng":"12.3751564","id":6572855,"name":"Lederhaus Maiczak","phone":"0341 9939336+ Fax","email":"info@lederhaus-maiczak.de","address":"Königshaus-Passage","city":"Leipzig","postal":"04109","priority":1},{"lat":"50.9276442","lng":"11.5820282","id":6572857,"name":"Lederwaren Mischek","phone":"03641-420202","email":"renemischek@gmx.de","address":"Goethestraße 3, Goethe-Galerie","city":"Jena","postal":"07743","priority":1},{"lat":"52.4014294","lng":"13.0542026","id":6572859,"name":"Just Merino","phone":"0331-97933310","email":"T.Wrede@Justmerino.de","address":"Gutenbergstr. 99","city":"Potsdam","postal":"14467","priority":1},{"lat":"50.3192631","lng":"11.9168529","id":6572860,"name":"Neumeister GmbH","phone":"09281 - 71 42 0","email":"info@neumeister-hof.de","address":"Oberes Tor 1","city":"Hof","postal":"95028","priority":1},{"lat":"51.152346","lng":"14.9886193","id":6572863,"name":"Neumann Lederparadies","phone":"03581 406812","email":"lederparadies-neumann@web.de","address":"City-Center Frauentor","city":"Görlitz","postal":"02826","priority":1},{"lat":"51.75463","lng":"8.04349","id":6572864,"name":"Pumpe Lederwaren","phone":"02521-3097","email":"gardinen-lederwaren-pumpe@t-online.de","address":"Clemens-August-Str. 1-3","city":"Beckum","postal":"59269","priority":1},{"lat":"49.9967097","lng":"8.2748125","id":6572867,"name":"Schuh Passion","phone":"06131-6277662, 361672","address":"Augustinerstraße 33","city":"Mainz","postal":"55116","priority":1},{"lat":"49.868847","lng":"8.6476762","id":6572869,"name":"P2","phone":"06151-5015337,3684709,1010610","email":"info@p2-darmstadt.de","address":"Hügelstrasse 71","city":"Darmstadt","postal":"64283","priority":1},{"lat":"52.5414463","lng":"13.4223506","id":6572870,"name":"pomeranza - design ranch","phone":"030-48495760","email":"chefin@pomeranza.berlin","address":"Raumerstrasse 19","city":"Berlin","postal":"10437","priority":1},{"lat":"51.306317","lng":"6.2747728","id":6572872,"name":"Bags & More","phone":"02153-954525","email":"peter.pruemen@t-online.de","address":"von Bocholtz-Strasse 13","city":"Nettetal-Lobberich","postal":"41334","priority":1},{"lat":"50.8808594","lng":"7.6372279","id":6572874,"name":"C. Pauli GmbH","phone":"02294-9923090, 02291-92060, 99","email":"kreditoren@Pauli.de","address":"Eisenstr. 2","city":"Waldbröl","postal":"51545","priority":1},{"lat":"50.2292432","lng":"12.8689213","id":6572876,"name":"Privatsachen.KV","phone":"0049-40-22632820","email":"tomas.krippner@gmx.de","address":"Dr. Bechera 17","city":"Karlovy Vary","postal":"36001","priority":1},{"lat":"53.1495965","lng":"8.2136373","id":6572878,"name":"plan b","phone":"0441-8853512","email":"plan-b-ol@t-online.de","address":"Alexanderstraße 21","city":"Oldenburg","postal":"26131","priority":1},{"lat":"51.7492689","lng":"11.9727306","id":6572880,"name":"Eleonore Plail","phone":"03496 213012","email":"lederplail@web.de","address":"Hallische Str. 70","city":"Köthen","postal":"06366","priority":1},{"lat":"49.4570845","lng":"11.0756996","id":6572881,"name":"Justin Interieur","phone":"0911-2447772","email":"ppdekor@gmx.de","address":"Bergstr. 10","city":"Nürnberg","postal":"90403","priority":1},{"lat":"49.0093756","lng":"8.4030762","id":6572883,"name":"Gepäckraum","phone":"0721-1519480","email":"info@gepaeckraum-ka.de","address":"Kaiserstr. 145","city":"Karlsruhe","postal":"76133","priority":1},{"lat":"51.0636812","lng":"13.7523443","id":6572886,"name":"Uta-Maria Radke","phone":"0351-8020421","address":"Rothenburger Str. 10","city":"Dresden","postal":"01099","priority":1},{"lat":"50.1042924","lng":"8.7649244","id":6572888,"name":"Koffer - Roth e.K.","phone":"069 813790","email":"info@koffer-roth.de","address":"Marktplatz 14-15","city":"Offenbach","postal":"63065","priority":1},{"lat":"50.1051516","lng":"8.6841586","id":6572890,"name":"rooming interior & design","phone":"069-66566781","email":"welcome@rooming-frankfurt.de","address":"Walter- Kolb- Str. 18","city":"Frankfurt am Main","postal":"60594","priority":1},{"lat":"50.0000582","lng":"8.270884","id":6572892,"name":"Georgi Weidemann Offenbacher Lederwaren","phone":"06131-226133, 06131-3369433","email":"ev.eggert@gmx.de","address":"Seppel-Glückert-Passage 7","city":"Mainz","postal":"55116","priority":1},{"lat":"49.2171379","lng":"12.6675952","id":6572894,"name":"Rupert Reil","phone":"09971 2460","email":"reil-cham@t-online.de","address":"Fuhrmannstr. 25","city":"Cham","postal":"93413","priority":1},{"lat":"52.6778877","lng":"13.5892863","id":6572896,"name":"Radtke Lederwaren","phone":"03338-7048060","email":"g.gesche@gmx.de","address":"Berliner Str. 25","city":"Bernau","postal":"16321","priority":1},{"lat":"49.2776747","lng":"11.4602842","id":6572899,"name":"Romstöck Lederwaren","phone":"09181 6491","email":"info@leder-romstoeck.de","address":"Oberer Markt 34","city":"Neumarkt","postal":"92318","priority":1},{"lat":"51.1288014","lng":"14.1802951","id":6572902,"name":"Renger Lederwaren","phone":"03594 703012","address":"Bautzener Str. 10","city":"Bischofswerda","postal":"01877","priority":1},{"lat":"48.1200718","lng":"7.8505953","id":6572904,"name":"Lederwaren Sulzberger","phone":"07641-49611+ Fax","email":"sulzberger-lederwaren@t-online.de","address":"Marktplatz 14","city":"Emmendingen","postal":"79312","priority":1},{"lat":"47.3768866","lng":"8.541694","id":6572906,"name":"Saus & Braus","phone":"004144 2422311+Fax","email":"info@sausbraus.ch","address":"CHE109065561","city":"Zürich","postal":"8004","priority":1},{"lat":"50.3965848","lng":"7.5230228","id":6572907,"name":"sorger´s GmbH","phone":"02630-9562910 Ha.001779410327","email":"post@sorgers.de","address":"Industriestr. 34","city":"Mülheim-Kärlich","postal":"56218","priority":1},{"lat":"47.7499145","lng":"11.3747234","id":6572909,"name":"Samt & B'sonders","phone":"08856-933606","email":"samtundbsonders@gmx.de","address":"Ludwig-März-Str.3","city":"Penzberg","postal":"82377","priority":1},{"lat":"48.1815276","lng":"14.0668644","id":6572911,"name":"Schmuckdesign Sonnleitner","phone":"0043-724235142\/069917176032","email":"office@einknopf.at","address":"Ginzkeystr. 90","city":"Wels","postal":"4600","priority":1},{"lat":"53.5594635","lng":"9.8875206","id":6572912,"name":"SAMETOSAME","phone":"040-85507495","email":"sametosame@t-online.de","address":"Reventlowstr. 66","city":"Hamburg","postal":"22605","priority":1},{"lat":"49.23387","lng":"10.50784","id":6572914,"name":"Seichter Taschenfabrikation","phone":"09825 304","email":"seichter-lederwaren@t-online.de","address":"Industriestraße 15","city":"Herrieden","postal":"91567","priority":1},{"lat":"50.9773794","lng":"11.328025","id":6572915,"name":"Schmuck und Design","phone":"03643 - 513817, 494872","email":"buero@schmuckunddesign-weimar.de","address":"Frauenplan 7","city":"Weimar","postal":"99423","priority":1},{"lat":"49.5210087","lng":"9.3264904","id":6572917,"name":"Scherzer & Rakus","phone":"06281-9483","email":"info@gardinen-scherzer-rakus.de","address":"Kellereistr. 40","city":"Buchen","postal":"74722","priority":1},{"lat":"49.3233198","lng":"7.3403451","id":6572919,"name":"Scheu GmbH","phone":"06841-2670","email":"post@lederwarenscheu.de","address":"Eisenbahnstraße 20","city":"Homburg \/ SAAR","postal":"66424","priority":1},{"lat":"51.4348782","lng":"6.7894438","id":6572921,"name":"Frau Scharbatke","phone":"0203-7398070Ha.01731371040","email":"info@silkescharbatke.de","address":"Martinstrasse 40","city":"Duisburg","postal":"47058","priority":1},{"lat":"52.6394376","lng":"9.2069581","id":6572923,"name":"Björn Schönerleben","phone":"05021-911024+Fax","email":"edel.ruehrup@web.de","address":"Georgstr.11","city":"Nienburg","postal":"31582","priority":1},{"lat":"49.3619367","lng":"8.2584544","id":6572925,"name":"Schäfer Annemarie","phone":"06324 58829+Fax","email":"KEINE eMailadr.","address":"Schillerstraße 10 A","city":"Haßloch","postal":"67454","priority":1},{"lat":"49.9991513","lng":"8.2740767","id":6572926,"name":"Ilse Schüttler","phone":"06131\/229984","email":"ilse.schuettler@web.de","address":"Markt 18-20","city":"Mainz","postal":"55116","priority":1},{"lat":"47.783429","lng":"9.6137457","id":6572929,"name":"Schwartz Leder","phone":"0751 25950","email":"info@leder-schwartz.de","address":"Marienplatz 67","city":"Ravensburg","postal":"88212","priority":1},{"lat":"50.9331552","lng":"13.9512611","id":6572930,"name":"Der Lederladen","phone":"03501-446314 01733527717","email":"s.staub@staubtore.de","address":"Mozartstr. 14","city":"Pirna","postal":"01796","priority":1},{"lat":"51.83278","lng":"14.14571","id":6572932,"name":"Schuhhaus Strauch","phone":"035603-563","email":"karin@schuhhaus-strauch.de","address":"Kurparkstr. 8","city":"Burg\/Spreewald","postal":"03096","priority":1},{"lat":"50.3378293","lng":"8.7543172","id":6572933,"name":"Lederwaren Steck","phone":"06031-4730","email":"info@lederwarensteck.de","address":"Kaiserstr. 60","city":"Friedberg","postal":"61169","priority":1},{"lat":"49.1467087","lng":"9.2241285","id":6572935,"name":"Das Taschenhaus-Stütz GmbH","phone":"07131-942027","email":"marc.stuetz@dasTaschenhaus.de","address":"Weinsberger Str. 17\/1","city":"Heilbronn","postal":"74072","priority":1},{"lat":"51.1217323","lng":"13.1194178","id":6572937,"name":"Bettina Illge","phone":"03431 710008","email":"info@trendsinleder.com","address":"Niedermarkt 18","city":"Döbeln","postal":"04720","priority":1},{"lat":"52.409092","lng":"12.609785","id":6572939,"name":"Taschen Trend","phone":"0172-3871536","email":"taschen.trend@t-online.de","address":"EKZ - Werderpark An der B 1","city":"Brandenburg a.d.H.","postal":"14542","priority":1},{"lat":"49.0079136","lng":"8.3966543","id":6572942,"name":"Faire Ware (vorm.Tragware)","phone":"0721-46716997","email":"info@faireware.de","address":"Herrenstr. 46","city":"Karlsruhe","postal":"76133","priority":1},{"lat":"42.21384","lng":"2.64146","id":6572943,"name":"TALLER DE CUIR","phone":"0034-972687618","email":"info@tallerdecuir.com","address":"Carrer Muralla 9","city":"Argelaguer-Girona","postal":"17853","priority":1},{"lat":"50.1209052","lng":"8.6974402","id":6572945,"name":"Tulu","phone":"069-432728","email":"tulu@tulu-frankfurt.de","address":"Berger Straße 66","city":"Frankfurt am Main","postal":"60316","priority":1},{"lat":"51.1844557","lng":"11.9264999","id":6572947,"name":"Taschenwelt","phone":"03443-338433, 030-92253804","email":"taschenwelt@web.de","address":"Am Marktwege 2","city":"Weißenfels, Saale","postal":"06667","priority":1},{"lat":"54.8911742","lng":"8.356823","id":6572949,"name":"Teekontor Keitum GmbH","phone":"04651-8891194","email":"lieferanten@teekontorkeitum.com","address":"Siidik 15","city":"Sylt-Ost","postal":"25980","priority":1},{"lat":"50.1234345","lng":"8.6934095","id":6572951,"name":"Tragbar","phone":"069-26013652","email":"joerg@dasisttragbar.de","address":"Guenthersburgallee 6","city":"Frankfurt","postal":"60316","priority":1},{"lat":"49.4114177","lng":"7.5684631","id":6572953,"name":"T = trend","phone":"06371-4902590","email":"trend-lederwaren@t-online.de","address":"Ludwigstr.8","city":"Landstuhl","postal":"66849","priority":1},{"lat":"49.9844029","lng":"7.9670829","id":6572955,"name":"Tipico GmbH","phone":"06722-71511","email":"tipico.cw@freenet.de","address":"Behlstraße 4","city":"Geisenheim","postal":"65366","priority":1},{"lat":"48.4003588","lng":"9.9915617","id":6572956,"name":"Ulm Lederwerkstatt","phone":"0731- 63265+ Fax","email":"karin.morales@web.de","address":"Herrnkellergasse 7","city":"Ulm","postal":"89073","priority":1},{"lat":"52.49126","lng":"13.41226","id":6572957,"name":"Polli Überall","phone":"0179-3703793\/030-69004251","email":"info@polli-ueberall.com","address":"Körtestr. 3","city":"Berlin","postal":"10967","priority":1},{"lat":"48.521115","lng":"9.052508","id":6572959,"name":"Leder Boutique","phone":"07071-27475","email":"viscont-gmbh@arcor.de","address":"Kornhausstr. 24 E","city":"Tübingen","postal":"72070","priority":1},{"lat":"47.3575872","lng":"8.5549003","id":6572960,"name":"VIELFACH","phone":"0041-444220008","email":"lilo.altorfer@vielfach.ch","address":"Seefeldstrasse 127","city":"Zürich","postal":"8008","priority":1},{"lat":"53.7960046","lng":"12.1728279","id":6572962,"name":"Wiedewald Moden","phone":"03843-682430","email":"info@wiedewald-moden.de","address":"Pferdemarkt 23","city":"Güstrow","postal":"18273","priority":1},{"lat":"47.6224597","lng":"8.2108806","id":6572964,"name":"Wegeler Lederwaren","phone":"07751 2507 (  895720)","email":"wegeler.lederwaren@t-online.de","address":"Kaiserstraße 73","city":"Waldshut","postal":"79761","priority":1},{"lat":"50.5872952","lng":"12.7021365","id":6572967,"name":"Weigel Lederwaren","phone":"03771-20914","email":"info@lederwaren-weigel.de","address":"Bahnhofstr. 11","city":"Aue","postal":"08280","priority":1},{"lat":"51.236119","lng":"12.7294733","id":6572968,"name":"Leder-Weber N+W Seidel GmbH","phone":"03437-919927","email":"leder-weber@t-online.de","address":"Markt 26","city":"Grimma","postal":"04668","priority":1},{"lat":"50.0762935","lng":"8.4747454","id":6572971,"name":"Julia Woelke von Werthern","phone":"06192-25906Ha.01792338895","email":"info@antik-hofheim.de","address":"Beyerbachstr. 9","city":"Kriftel","postal":"65830","priority":1},{"lat":"54.3121793","lng":"13.0886288","id":6572972,"name":"Lederwaren Witt","phone":"03831-2888824, 01714134801","email":"roger.witt@gmx.de","address":"Apollonienmarkt 18","city":"Stralsund","postal":"18439","priority":1},{"lat":"51.68485","lng":"6.61671","id":6572975,"name":"Wohntrend","phone":"0281-29120","email":"wohntrend@t-online.de","address":"Inh. Markus Münnich","city":"Wesel","postal":"46483","priority":1},{"lat":"49.58758","lng":"9.36952","id":6572976,"name":"Walter Raum-u. Idee GmbH & Co. KG","phone":"06282 265","email":"walter.raumundidee@web.de","address":"Untere Hangstr. 12","city":"Walldürn","postal":"74731","priority":1},{"lat":"49.1674907","lng":"10.3295501","id":6572978,"name":"Schuhhaus am Zwinger","phone":"09852-2412","email":"info@schuhhaus-am-zwinger.de","address":"Untere Torstraße 22","city":"Feuchtwangen","postal":"91555","priority":1},{"lat":"51.2156984","lng":"13.722865","id":6572980,"name":"Weser Lederwaren","phone":"035208-2394","email":"post@lederwaren-weser.de","address":"Großenhainer Str. 7","city":"Radeburg","postal":"01471","priority":1},{"lat":"50.4932132","lng":"12.1346209","id":6572981,"name":"Wimmer Lederwaren","phone":"03741 228241","email":"jette_2004@web.de","address":"Straßberger Str. 13","city":"Plauen","postal":"08527","priority":1},{"lat":"51.0085959","lng":"10.9940651","id":6572983,"name":"Lederland A.S. GmbH","phone":"0361-7462070\/ 01735924135","email":"lederland.erfurt@arcor.de","address":"Nordhäuser Str. 73 T,Thüringen - Park","city":"Erfurt","postal":"99091","priority":1},{"lat":"51.0851734","lng":"13.6959387","id":6572985,"name":"Georgi Lederwaren GmbH","phone":"0351-8496040","email":"haustein@georgi-lederwaren.de","address":"Peschelstraße 31","city":"Dresden","postal":"01139","priority":1},{"lat":"50.8632516","lng":"12.8662005","id":6572987,"name":"Georgi Lederwaren GmbH","phone":"03722-500244","email":"chemnitz@georgi-lederwaren.de","address":"Ringstraße 10","city":"Chemnitz-Röhrsdorf","postal":"09247","priority":1},{"lat":"52.4595498","lng":"13.3236012","id":6572989,"name":"Naturkaufhaus GmbH","phone":"030-7934413Fr. Kvarics","email":"fischer@naturkaufhaus-berlin.de","address":"Schloßstrasse 101, in der Galleria","city":"Berlin","postal":"12163","priority":1},{"lat":"51.2293285","lng":"5.3128186","id":6572991,"name":"Young and old","phone":"003211542981","address":"Kerkstraat 57","city":"Lommel","postal":"3920","priority":1},{"lat":"46.3158992","lng":"7.9878208","id":6572993,"name":"ZAP Zur alten Post","phone":"0041279212722","email":"s.heinzen@zap.ch","address":"Postfach 732","city":"Brig","postal":"3900","priority":1},{"lat":"47.660156","lng":"9.1758716","id":6572995,"name":"Hepp & Hepp Optik-Photo GmbH","phone":"07531-23552","email":"info@optik-hepp.de","address":"Marktstätte 9","city":"Konstanz","postal":"78462","priority":1},{"lat":"48.5212231","lng":"9.0571067","id":6572997,"name":"Style afFAIRe","phone":"07071- 6892999","email":"info@styleaffaire.de","address":"Hafengasse 11","city":"Tübingen","postal":"72070","priority":1},{"lat":"51.8606254","lng":"6.1216048","id":6572998,"name":"Theo Pot","phone":"0031-618030807","email":"info@theopot.nl","address":"Walhof 11","city":"Lobith","postal":"6915AV","priority":1},{"lat":"50.1020982","lng":"10.9991666","id":6573000,"name":"zeitlosschön","phone":"09573 - 959069","email":"zeitlosschoen@t-online.de","address":"Bahnhofstr. 17","city":"Bad Staffelstein","postal":"96231","priority":1},{"lat":"51.0547532","lng":"8.3950229","id":6573002,"name":"Wohnen in Harmonie","phone":"02751 - 920250","email":"waltraudlueckel@gmx.de","address":"Poststraße 43","city":"Bad Berleburg","postal":"57319","priority":1},{"lat":"49.4873311","lng":"8.4705435","id":6573003,"name":"Boutique Freudenhaus","phone":"0621-22538","email":"freudenhausmannheim@gmail.com","address":"Q5,2","city":"Mannheim","postal":"68161","priority":1},{"lat":"52.5046049","lng":"13.321832","id":6573006,"name":"Esther Thomas","phone":"030-3135125","email":"info@estherthomas.berlin","address":"Knesebeckstrasse 26","city":"Berlin","postal":"10623","priority":1},{"lat":"50.083409","lng":"8.2401255","id":6573007,"name":"Leder-Hahn","phone":"0611-305396","email":"leder-hahn@t-online.de","address":"Wagemannstraße 26","city":"Wiesbaden","postal":"65183","priority":1},{"lat":"50.1218153","lng":"8.6807624","id":6573008,"name":"Taschentick","phone":"069-59795049Ha.01758080440","email":"bayer-lederstudio@gmx.de","address":"Oeder Weg 56","city":"Frankfurt am Main","postal":"60318","priority":1},{"lat":"47.8086375","lng":"9.6423415","id":6573010,"name":"Leder Brumme","phone":"0751-5681441","email":"reinertbrumme@t-online.de","address":"Kirchstr. 15","city":"Weingarten","postal":"88250","priority":1},{"lat":"47.4940956","lng":"7.6190694","id":6573013,"name":"Scheiwi-Sport","phone":"0041 617017279","email":"info@scheiwi-sport.ch","address":"Postplatz 1","city":"Arlesheim","postal":"4144","priority":1},{"lat":"47.1665237","lng":"9.474515","id":6573015,"name":"Helbling Mode AG","phone":"0041 81 7505757","email":"info@helblingmode.ch","address":"Bahnhofstr. 30","city":"Buchs","postal":"9470","priority":1},{"lat":"52.4124697","lng":"13.5721657","id":6573017,"name":"Leder-Point","phone":"030-51653928","address":"Bruno Taut-Str. 1","city":"Berlin","postal":"12524","priority":1},{"lat":"47.9528355","lng":"8.4979672","id":6573018,"name":"Schmoll - Mode für Männer","phone":"0771-3126","email":"info@schmoll.com","address":"Karlstr. 21","city":"Donaueschingen","postal":"78166","priority":1},{"lat":"48.5351524","lng":"12.152941","id":6573020,"name":"Foto Petzold KG","phone":"0871 89871","email":"info@fotopetzold.de","address":"Schirmgasse 281","city":"Landshut","postal":"84028","priority":1},{"lat":"50.5342793","lng":"6.2541562","id":6573022,"name":"TaschenLust by Trendshop","phone":"02253-541547, 0162 8111169","email":"r.eichstaedt@gmx.de","address":"Weiherstr. 4","city":"Monschau","postal":"52156","priority":1},{"lat":"47.2623922","lng":"11.3945511","id":6573024,"name":"Fair Handel GmbH","phone":"0043-512932231","email":"chr.mitterlehner@aon.at","address":"Leopoldtstr. 2","city":"Innsbruck","postal":"6020","priority":1},{"lat":"51.4799448","lng":"7.2202451","id":6573026,"name":"Die Jungs In & Out GmbH","phone":"0234-9129736","email":"info@diejungs.eu","address":"Hellweg 6","city":"Bochum","postal":"44787","priority":1},{"lat":"51.15315","lng":"11.80742","id":6573027,"name":"Ute Lindner Lederwaren","phone":"03445-7116474","email":"ute.lindner156@web.de","address":"Herrenstr. 15","city":"Naumburg","postal":"06618","priority":1},{"lat":"51.1680337","lng":"6.4432359","id":6573029,"name":"Lamm-Pion","phone":"02166 420767","email":"info@lamm-pion.de","address":"Hauptstr. 45","city":"Mönchengladbach-Rheydt","postal":"41236","priority":1},{"lat":"49.7039342","lng":"9.3304708","id":6573031,"name":"ATELIER Roswitha Hörnig","phone":"09371-95903","email":"info@atelier-hoernig.de","address":"Alte Steige 19","city":"Eichenbühl","postal":"63928","priority":1},{"lat":"46.9913379","lng":"6.9287414","id":6573033,"name":"Downtown Bijoux Sarl","phone":"0041-327247124\/032 968 13 28","email":"lachauxdefonds@downtown-bijoux.ch","address":"Rue du Trésor 7","city":"Neuchatel","postal":"2000","priority":1},{"lat":"51.375799","lng":"7.6985121","id":6573035,"name":"Liebling´s","phone":"02371-778870","email":"post@lieblings-laden.de","address":"Am dicken Turm 3","city":"Iserlohn","postal":"58636","priority":1},{"lat":"49.9129045","lng":"8.3414467","id":6573037,"name":"Nathalie Paschke","phone":"017658662005","email":"nathaliepaschke@yahoo.fr","address":"Weinberg Str. 32","city":"Nackenheim","postal":"55299","priority":1},{"lat":"50.7735153","lng":"6.0783758","id":6573038,"name":"Mancherlei","phone":"0241-35117","email":"post@mancherlei-aachen.de","address":"Jakobstr. 45","city":"Aachen","postal":"52064","priority":1},{"lat":"52.48674","lng":"13.43271","id":6573040,"name":"Wesen","phone":"030-34761165","email":"hallo@wesen-berlin.com","address":"Tellstr. 7","city":"Berlin","postal":"12045","priority":1},{"lat":"50.7367792","lng":"7.1012177","id":6573042,"name":"Zessibong","phone":"0228-9814520","email":"mail@zessibong.de","address":"Bonngasse 16","city":"Bonn","postal":"53111","priority":1},{"lat":"48.0619363","lng":"12.227145","id":6573044,"name":"Wasserburger Biomarkt","phone":"08071-9225652","email":"textilabteilung@wasserburger-biomarkt.de","address":"Bahnhofsplatz 5","city":"Wasserburg am Inn","postal":"83512","priority":1},{"lat":"50.0036594","lng":"8.2128234","id":6573046,"name":"schön gesellig","phone":"06131-6696855","email":"kontakt@schoen-gesellig.de","address":"Wilhelm-Raabe-Str. 5","city":"Gonsenheim","postal":"55124","priority":1},{"lat":"51.2387145","lng":"6.7802488","id":6573048,"name":"Roberta","phone":"0211-91739985, 0175-5467082","email":"Hallo@roberta-Thestore.de","address":"Nordstraße 71","city":"Düsseldorf","postal":"40479","priority":1},{"lat":"49.1122132","lng":"9.735591","id":6573050,"name":"Natur und Mode","phone":"0791-6672 od 0791-9401719","email":"naturundmode@gmx.de","address":"Blockgasse 10","city":"Schwäbisch Hall","postal":"74523","priority":1},{"lat":"50.9381439","lng":"6.950131","id":6573052,"name":"Mundo Verde","phone":"0221-30197693","email":"jenny@mundo-verde-fashion.de","address":"Krebsgasse 5-11","city":"Köln","postal":"50667","priority":1},{"lat":"48.521657","lng":"9.0561035","id":6573054,"name":"Dreiraum GbR","phone":"07071-8609230","email":"info@drei-raum.com","address":"Beim Nonnenhaus 7","city":"Tübingen","postal":"72070","priority":1},{"lat":"47.8790867","lng":"10.6219488","id":6573056,"name":"Natürlich fair","phone":"0151-15574100","email":"wifrofi@gmx.de","address":"Ludwigstr.16","city":"Kaufbeuren","postal":"87600","priority":1},{"lat":"47.4021506","lng":"8.4995239","id":6573057,"name":"Canto Verde","phone":"0041 443410301","email":"mt@cantoverde.ch","address":"Limmattalstraße 178","city":"Zürich","postal":"8049","priority":1},{"lat":"51.2294302","lng":"6.8067497","id":6573059,"name":"Moritz Wenz Studio","phone":"0211 54476314","email":"info@moritz-wenz.de","address":"Ackerstrasse 155","city":"Düsseldorf-Flingern","postal":"40233","priority":1},{"lat":"51.9601403","lng":"7.632823","id":6573061,"name":"Papiertiger","phone":"0251 518922\/53019826","email":"ludger-icking@t-online.de","address":"Klosterstraße 1","city":"Münster","postal":"48143","priority":1},{"lat":"51.2865889","lng":"7.2038334","id":6573063,"name":"Stöberkiste","phone":"0202 524028","email":"info@stoeberkiste-wuppertal.de","address":"Märkische Str. 114","city":"Wuppertal","postal":"42281","priority":1},{"lat":"54.6883663","lng":"8.5698626","id":6573064,"name":"Foto Ingwersen","phone":"04681-1717","email":"foto-ingwersen@t-online.de","address":"Sandwall 32","city":"Wyk auf Föhr","postal":"25938","priority":1},{"lat":"50.994797","lng":"9.7281993","id":6573066,"name":"Bier-Einrichtungshaus","phone":"06623\/1504-05663858","email":"info@bier-dasteam.eu","address":"Breitenstraße 22-24","city":"Rotenburg\/Fulda","postal":"36199","priority":1},{"lat":"51.2272084","lng":"6.7850237","id":6573068,"name":"Hifi & Foto Koch GmbH","phone":"0211-17880-203","email":"v.barth@fotokoch.de","address":"Schadowstraße 60-62","city":"Düsseldorf","postal":"40212","priority":1},{"lat":"53.2473004","lng":"10.4042034","id":6573069,"name":"Violetta","phone":"04131-707711","email":"info@violetta-lueneburg.de","address":"Salzstraße 28, Ecke Grapengießerstr.","city":"Lüneburg","postal":"21335","priority":1},{"lat":"50.9759629","lng":"11.026829","id":6573071,"name":"Moquadrat","phone":"0361\/43039948 - 015224767733","email":"info@moquadrat.de","address":"Paulstr. 29\/30","city":"Erfurt","postal":"99084","priority":1},{"lat":"58.380322","lng":"12.3227911","id":6573073,"name":"Fiorina AB","phone":"0046 521 13145","email":"anna@fiorina.se","address":"Edsgatan 20","city":"Vänersborg","postal":"46233","priority":1},{"lat":"50.3202434","lng":"11.9181063","id":6573075,"name":"Unikum Schmuck & Design GmbH","phone":"09281 16373","email":"info@unikumhof.de","address":"Ludwigstr. 59","city":"Hof","postal":"95028","priority":1},{"lat":"47.76647","lng":"9.1612801","id":6573076,"name":"Petra Huber Lederwaren","phone":"07551 2239","email":"petrahuber@ph-lederwaren.de","address":"Münsterstr.24","city":"Überlingen","postal":"88662","priority":1},{"lat":"48.2996629","lng":"16.4189149","id":6573078,"name":"Weltladen Stammersdorf","phone":"0043 012948149","email":"weltladen@stammersdorf.at","address":"Stammersdorfer Str. 116-120","city":"Wien","postal":"1210","priority":1},{"lat":"48.9985958","lng":"8.471676","id":6573079,"name":"ecco","phone":"0721\/493107","email":"info@ecco-durlach.de","address":"Amthausstraße 9","city":"Karlsruhe-Durlach","postal":"76227","priority":1},{"lat":"51.9000262","lng":"-8.4771357","id":6573082,"name":"Beltshop","phone":"00353214276173","email":"beltshopcork@gmail.com","address":"56 Cornmarket Steet","city":"Cork","priority":1},{"lat":"50.8028317","lng":"6.4840686","id":6573083,"name":"Klaus Peters Lederwaren","phone":"02421-16148","email":"lederwaren.peters@gmail.com","address":"Kölnstr. 1","city":"Düren","postal":"52349","priority":1},{"lat":"52.725365","lng":"5.0919023","id":6573085,"name":"De Bokkesprong","phone":"0031-229 201047","email":"info@debokkesprong.com","address":"Oosteinde 45","city":"HR Oostwoud","postal":"1678","priority":1},{"lat":"47.8261937","lng":"10.0237429","id":6573088,"name":"Brezes Lederwerkstatt","phone":"07561\/8204505","email":"info@brezes-lederwerkstatt.de","address":"Bachstraße 2","city":"Leutkirch","postal":"88299","priority":1},{"lat":"48.5200201","lng":"9.0533921","id":6573090,"name":"Der Pullover","phone":"07071-24063 \/ 5014","email":"derpullover@gmx.de","address":"Wiener Gässle 2","city":"Tübingen","postal":"72070","priority":1},{"lat":"49.6879882","lng":"12.1643167","id":6573092,"name":"eseo Naturwaren GmbH","phone":"0961-3989363","email":"eseo.biomarkt@t-online.de","address":"Dr. Martin Lutzerstr. 9","city":"Weiden","postal":"92637","priority":1},{"lat":"53.46946","lng":"7.47896","id":6573094,"name":"Das Einhorn","phone":"04941-964222","email":"info@das-Einhorn.de","address":"Burgstr. 40","city":"Aurich","postal":"26603","priority":1},{"lat":"53.2209985","lng":"8.9284965","id":6573095,"name":"Maigrün","phone":"04792-955355","email":"info@maigruen.net","address":"Bergstr. 11","city":"Worpswede","postal":"27726","priority":1},{"lat":"47.2119197","lng":"7.7876127","id":6573098,"name":"Boutique Sein","phone":"0041 629622882","email":"doris@boutique-sein.ch","address":"Schulhausstr. 4","city":"Langenthal","postal":"4900","priority":1},{"lat":"51.50491","lng":"7.45488","id":6573100,"name":"Unterhaltung","phone":"0231\/9565943","email":"matthias@unterhaltung-lieblingsstuecke.de","address":"Schillingstr. 27a","city":"Dortmund","postal":"44139","priority":1},{"lat":"49.99688","lng":"8.27407","id":6573102,"name":"Tandaradei","phone":"06131-224000","email":"nbraeunig@googlemail.com","address":"Badergasse 18-22","city":"Mainz","postal":"55116","priority":1},{"lat":"53.6683244","lng":"7.4939323","id":6573104,"name":"Fiefschaft Handweberei","phone":"+49 (0) 4933 1647\/1572","email":"webmaster@fiefschaft.de","address":"Dammspolder 1","city":"Dornum","postal":"26553","priority":1},{"lat":"55.0591134","lng":"10.6084471","id":6573106,"name":"Jalfe Kunsthåndværk & KlæderGerritsgade","phone":"004562201277\/ 24611982","email":"jalfe@live.dk","address":"Gerritsgade 24","city":"Svendborg","postal":"5700","priority":1},{"lat":"50.8643493","lng":"7.7269098","id":6573108,"name":"Buchladen Lesebuch","phone":"02294-993899","email":"buchladen-lesebuch@t-online.de","address":"Bahnhofstr. 8","city":"Morsbach","postal":"51597","priority":1},{"lat":"50.9296238","lng":"6.9140753","id":6573110,"name":"M-Philippi","phone":"0221-94388112","email":"hello@m-philippi.com","address":"Dürener Str. 190","city":"Köln","postal":"50931","priority":1},{"lat":"49.70471","lng":"10.2603725","id":6573111,"name":"Gernert Thorsten","phone":"09323\/8753375, 09321\/9260860 ","email":"t.gernert@t-online.de","address":"Marktplatz 26a","city":"Iphofen","postal":"97346","priority":1},{"lat":"50.7328642","lng":"7.0850089","id":6573113,"name":"Alma & Lovis GmbH","phone":"0228\/53461782","email":"shop@almalovis.de","address":"Haydnstr. 36","city":"Bonn","postal":"53115","priority":1},{"lat":"49.76852","lng":"8.64441","id":6573114,"name":"Blumenduft","phone":"06257-937080","email":"blumenduft@t-online.de","address":"Heidelberger Str. 47","city":"Seeheim-Jugenheim","postal":"64342","priority":1},{"lat":"49.596647","lng":"11.0083542","id":6573117,"name":"Das Uni-kat","phone":"0160-94743783","email":"dasunikat@mnet-mail.de","address":"Obere Karlstr. 6","city":"Erlangen","postal":"91054","priority":1},{"lat":"50.9182484","lng":"6.9249001","id":6573119,"name":"concept hommage","phone":"0221 16845407","email":"anlica.koppenhofer@web.de","address":"Berrenratherstr. 250","city":"Köln","postal":"50939","priority":1},{"lat":"48.8547709","lng":"13.3960767","id":6573121,"name":"Modehaus Blach","phone":"08552-408980","email":"rechnung@blach-modehaus.de","address":"Kröllstraße 7","city":"Grafenau","postal":"94481","priority":1},{"lat":"50.9300812","lng":"11.5820172","id":6573124,"name":"Hauptsache","phone":"03641-824245 Nebenladen","email":"info@hauptsache-in-jena.de","address":"Wagnergasse35","city":"Jena","postal":"07743","priority":1},{"lat":"50.5683963","lng":"10.4155548","id":6573125,"name":"Heusinger Lederwaren","phone":"03693 502536","email":"lederwaren-heusinger@gmx.de","address":"Georgstraße 35","city":"Meiningen","postal":"98617","priority":1},{"lat":"52.275001","lng":"10.5422587","id":6573127,"name":"Amelie shoes & secondhand","phone":"0531-2885227","email":"amelie-shoes-sec.hand@gmx.de","address":"Gliesmaroder Strasse 95","city":"Braunschweig","postal":"38106","priority":1},{"lat":"49.7032469","lng":"10.8051932","id":6573129,"name":"Naturschön","phone":"09193-501412","email":"naturschoen@posteo.de","address":"Hauptstr. 6","city":"Höchstadt","postal":"91315","priority":1},{"lat":"49.89109","lng":"10.88527","id":6573130,"name":"Serendib","phone":"0951-24958","email":"mail@serendib-bamberg.de","address":"Karolinenstr. 18","city":"Bamberg","postal":"96049","priority":1},{"lat":"50.3475513","lng":"9.5266002","id":6573132,"name":"Urbach Moden","phone":"06661-4458","email":"piaurbach.moden@gmail.com","address":"Krämer Str.","city":"Schlüchtern","postal":"36381","priority":1},{"lat":"49.996936","lng":"8.2744697","id":6573134,"name":"Augustine Schuhe & Accessoires","phone":"06131-9451430","email":"info@augustine-oekomode-mainz.de","address":"Augstinerstr. 49","city":"Mainz","postal":"55116","priority":1},{"lat":"48.2182706","lng":"16.3585917","id":6573137,"name":"Goodshoes Ethik und Design","phone":"0043 13173442","email":"service@goodshoes.at","address":"Währinger Str. 24","city":"Wien","postal":"1090","priority":1},{"lat":"52.5016053","lng":"13.4187416","id":6573139,"name":"Cherry Bomb","phone":"030-6146151","email":"cg@cherry-bomb.de","address":"Oranientr. 32","city":"Berlin","postal":"10999","priority":1},{"lat":"51.0060057","lng":"3.6159179","id":6573140,"name":"A Growing Three","phone":"0032 9 277 77 15","email":"steven@decovry.com","address":"Muldersdreef 43","city":"Deurle","postal":"9831","priority":1},{"lat":"47.5681213","lng":"10.7006585","id":6573142,"name":"Die Tasche Füssen","phone":"08362 - 930 58 84","email":"kontakt@dietasche-fuessen.de","address":"Brunnengasse 17","city":"Füssen","postal":"87629","priority":1},{"lat":"51.0598997","lng":"13.7424401","id":6573143,"name":"Georgi Lederwaren GmbH","email":"info@georgi-lederwaren.de","address":"Hauptstr. 9","city":"Dresden","postal":"01097","priority":1},{"lat":"51.1509412","lng":"14.9841319","id":6573145,"name":"Georgi Lederwaren GmbH","address":"Berliner Str. 7-9","city":"Görlitz","postal":"02826","priority":1},{"lat":"49.8808511","lng":"8.6542074","id":6573147,"name":"Grüner Salon","phone":"06151\/719115","email":"info@gruenersalon.de","address":"Robert-Schneider-Str. 20","city":"Darmstadt","postal":"64289","priority":1},{"lat":"47.1369794","lng":"7.3081164","id":6573149,"name":"Claro fairtrade","phone":"0041-323560700","email":"nicole.pilloud@claro.ch","address":"Byfangstr. 19","city":"Orpund","postal":"2552","priority":1},{"lat":"52.4016652","lng":"13.0520992","id":6573150,"name":"Bleib Sauber","phone":"0331-24345875\/01726803731","email":"shop@bleib-sauber.org","address":"Lindenstr. 5","city":"Potsdam","postal":"14467","priority":1},{"lat":"51.2966726","lng":"6.8488172","id":6573152,"name":"Men Concept Store 1752","phone":"02102\/1018901","email":"store1752@t-online.de","address":"Düsseldorfer Str. 15","city":"Ratingen","postal":"40878","priority":1},{"lat":"50.1974523","lng":"6.8303177","id":6573154,"name":"Das Landhaus","phone":"06592-982200","email":"kontakt@landhaus-daun.de","address":"Burgfriedstr. 30","city":"Daun","postal":"54550","priority":1},{"lat":"52.2757249","lng":"8.0427387","id":6573156,"name":"Mint & Zimt","phone":"04863\/4038082","email":"mintundzimt@web.de","address":"Hakenstr. 3","city":"Osnabrück","postal":"49074","priority":1},{"lat":"47.4309392","lng":"9.8973588","id":6573159,"name":"Behmann GmbH","phone":"0043\/55122303","email":"mode@behmann.at","address":"Loco 910","city":"Egg","postal":"6863","priority":1},{"lat":"52.4221485","lng":"10.7888258","id":6573161,"name":"Fritz Hempel Wolfsburg GmbH","phone":"05361\/60092-44","email":"d.sedda@modehaushempel.de","address":"Porschestr. 45","city":"Wolfsburg","postal":"38440","priority":1},{"lat":"47.676786","lng":"11.2008358","id":6573162,"name":"Fairgissmeinnicht","phone":"08841\/4877779","email":"info@fairgissmeinnicht.com","address":"Untermarkt 24","city":"Murnau a. Staffelsee","postal":"82418","priority":1},{"lat":"51.0660106","lng":"13.7538895","id":6573164,"name":"Ladengalerie Tendresse","phone":"0351\/8012424","email":"tendre@t-online.de","address":"Rothenburger Str. 44","city":"Dresden","postal":"01099","priority":1},{"lat":"51.4817963","lng":"7.1327815","id":6573166,"name":"Leichtsinn","phone":"02327-328784","email":"leichtsinn-wat@arcor.de","address":"Alter Markt 3","city":"Bochum","postal":"44866","priority":1},{"lat":"52.52355","lng":"13.4002493","id":6573168,"name":"Zeppelin Mode","email":"nele.goetze@zeppelinmode.de","address":"Oranienburger Str. 87","city":"Berlin-Mitte","postal":"10178","priority":1},{"lat":"47.0696201","lng":"15.4431138","id":6573170,"name":"Chic Ethic Handels GmbH","phone":"0043-316 832630","email":"office@chic-ethic.at","address":"Tummelplatz 9","city":"Graz","postal":"8010","priority":1},{"lat":"49.8704508","lng":"8.6553098","id":6573173,"name":"Heckmannstore","phone":"06151-5990590","email":"verena@heckmannstore.com","address":"Schulstr. 5","city":"Darmstadt","postal":"64283","priority":1},{"lat":"51.3155624","lng":"9.49377","id":6573174,"name":"Glücksgriff","phone":"0561-56036186","email":"info@gluecksgriff-kassel.de","address":"Treppenstr. 9","city":"Kassel","postal":"34117","priority":1},{"lat":"47.6341653","lng":"8.2834017","id":6573177,"name":"Seipp Wohnen","phone":"07751\/83682; -89 (Gromann)","email":"buchhaltung@seipp.com","address":"Schaffhausener Str. 36","city":"Waldshut","postal":"79761","priority":1},{"lat":"53.6478057","lng":"10.1625075","id":6573179,"name":"Pelerina","phone":"+49 40 6039995","email":"pelerina.hamburg@yahoo.de","address":"Groten Hoff 18","city":"Hamburg","postal":"22359","priority":1},{"lat":"51.5132743","lng":"7.4691797","id":6573181,"name":"Wolke 7 Accessoires","phone":"0231-551074","email":"auf@W7indo.de","address":"Viktoriastr. 16","city":"Dortmund","postal":"44135","priority":1},{"lat":"51.4756738","lng":"7.4387055","id":6573182,"name":"Frau Petzold","phone":"0231 79793033","email":"info@fraupetzold.de","address":"HarkortStr. 57","city":"Dortmund","postal":"44225","priority":1},{"lat":"28.6582899","lng":"-17.9122108","id":6573184,"name":"Confetti Moda","phone":"0034 922402291","email":"mail@confetti-moda.es","address":"Avenida Venezuela 24","city":"Los Llanos de Aridane ","postal":"38760","priority":1},{"lat":"52.4897828","lng":"13.3876963","id":6573187,"name":"Herrlich Männergeschenke","phone":"030\/7845395","email":"info@herrlich-berlin.de","address":"Bergmannstr. 2","city":"Berlin Kreuzberg","postal":"10961","priority":1},{"lat":"52.90644","lng":"1.109723","id":6573190,"name":"The tannery","phone":"0044-1263712419","email":"info@thetannery.co.uk","address":"Garden rooms, Old Schoolhouse","city":"Holt Norfolk","postal":"NR256BB","priority":1},{"lat":"47.2025758","lng":"7.5374674","id":6573191,"name":"Gysin Leder","phone":"0041-799131814","email":"gysin.leder@bluewin.ch","address":"Alte Bernstr. 4","city":"Solothurn","postal":"4500","priority":1},{"lat":"48.805913","lng":"9.5290457","id":6573194,"name":"PER LEI Kuhn Schuhmoden OHG","phone":"07181 64990","email":"info@perlei-schuhmoden.de","address":"Höllgasse 26","city":"Schorndorf, Württ","postal":"73614","priority":1},{"lat":"50.940679","lng":"6.9346931","id":6573196,"name":"Fairfitters","phone":"0172 9827197","email":"hallo@fairfitters.de","address":"Brüsseler Str. 77","city":"Köln","postal":"50672","priority":1},{"lat":"47.5569476","lng":"7.5848928","id":6573198,"name":"1Fach-Basel","phone":"0041-612728282","email":"info@1fach-basel.ch","address":"Spalenberg 58","city":"Basel","postal":"4051","priority":1},{"lat":"50.6260918","lng":"6.9474607","id":6573200,"name":"Pitzen + Löhr Gbr","phone":"+49 222 612591","email":"pitzen.loehr@t-online.de","address":"Hauptstr. 53","city":"Rheinbach","postal":"53359","priority":1},{"lat":"47.9957218","lng":"7.8496169","id":6573202,"name":"Freiburger Lederhaus","phone":"0761 31201","email":"c.uhl@freiburger-leder-haus.de","address":"Rathausgasse 4","city":"Freiburg","postal":"79098","priority":1},{"lat":"51.1558007","lng":"14.98999","id":6573204,"name":"biovivo","phone":"+49 3581 661184","email":"mail@biovivo.net","address":"Brüderstr. 12 \/ Schwarze Straße 5","city":"Görlitz","postal":"02826","priority":1},{"lat":"51.503455","lng":"7.454994","id":6573206,"name":"ügo  Mode und Wohnen","phone":"0231 95091548","email":"info@uego-kreuzviertel.de","address":"Liebigstr. 46","city":"Dortmund","postal":"44139","priority":1},{"lat":"47.3697279","lng":"8.5440724","id":6573207,"name":"The White Panther GmbH","email":"team@thewhitepanther.ch","address":"Kirchgasse 7","city":"Zürich","postal":"8001","priority":1},{"lat":"51.3158829","lng":"9.4748884","id":6573209,"name":"Hab selig","phone":"0561-93713897","email":"info@habselig-kassel.de","address":"Friedrich-Ebert-Str. 90","city":"Kassel","postal":"34119","priority":1},{"lat":"55.6693787","lng":"12.5543573","id":6573211,"name":"Donn Ya Doll","phone":"004533226635","email":"dyd@donnyadoll.dk","address":"Istedgade 55","city":"Kopenhagen V","postal":"1650","priority":1},{"lat":"47.9050474","lng":"13.9614025","id":6573213,"name":"Grüne Erde GmbH","phone":"0043 7615 7801-220","email":"monika.lorenz@grueneerde.com","address":"Hauptstr. 9","city":"Scharnstein","postal":"4644","priority":1},{"lat":"50.3313387","lng":"7.7240915","id":6573215,"name":"Incantarsi","phone":"02603-5099180","email":"incantarsi@t-online.de","address":"Römerstr. 20","city":"Bad Ems","postal":"56130","priority":1},{"lat":"49.7522875","lng":"6.6383436","id":6573217,"name":"Rapunzel","phone":"0651-99193644","email":"info@rapunzel-trier.de","address":"Neustr. 84","city":"Trier","postal":"54290","priority":1},{"lat":"48.2021319","lng":"16.3510855","id":6573219,"name":"Schauraum","phone":"0043-1-5242502","email":"office@schauraum.at","address":"Siebensterngasse 33","city":"Wien","postal":"1070","priority":1},{"lat":"47.4998535","lng":"8.731406","id":6573220,"name":"Absynt GmbH","phone":"0041-522302300","email":"mail@absynt.com","address":"Obertor 37","city":"Winterthur","postal":"8400","priority":1},{"lat":"52.5034545","lng":"13.3256881","id":6573222,"name":"Wohnart","phone":"030-8825252","email":"info@wohnart-berlin.de","address":"Uhlandstr. 179-180","city":"Berlin","postal":"10623","priority":1},{"lat":"47.9655108","lng":"7.9559854","id":6573224,"name":"Wunderschön","phone":"07661-6298220","email":"wunderschoen-kirchzarten@web.de","address":"Höfener Str. 3","city":"Kirchzarten, Breisgau","postal":"79199","priority":1},{"lat":"50.9035805","lng":"8.7238435","id":6573225,"name":"Farbenhaus Scherer","phone":"06423-6970","email":"info@farbenhaus-scherer.de","address":"Am Untertor 2","city":"Wetter (Hessen)","postal":"35083","priority":1},{"lat":"50.0766905","lng":"8.7822192","id":6573227,"name":"Artevilla","phone":"069-46096354","email":"annabella_k@web.de","address":"Waldstr. 357","city":"Offenbach am Main","postal":"63071","priority":1},{"lat":"45.7653848","lng":"4.8321772","id":6573229,"name":"Pop and shoes SARL NOA","phone":"0031 4 78 61 10 07","email":"popandshoes@gmail.com","address":"6 rue Chavanne","city":"Lyon","postal":"69001","priority":1},{"lat":"55.6760968","lng":"12.5683372","id":6573231,"name":"Butik Silkevejen","phone":"0045 51888378","email":"info@silkevejen.com","address":"Larsbjoernsstraße 19 kld","city":"Kopenhagen","postal":"1454","priority":1},{"lat":"52.4928306","lng":"13.4173697","id":6573233,"name":"Selbrund GmbH","phone":"030-69566950","email":"selbrund@gmx.de","address":"Gräfestr. 19","city":"Berlin","postal":"10967","priority":1},{"lat":"52.4907505","lng":"13.4571892","id":6573235,"name":"Taschenwelt","phone":"030 922 53 804","email":"taschenwelt@web.de","address":"Parkcenter Treptow","city":"Berlin","postal":"12435","priority":1},{"lat":"51.6195847","lng":"7.1975762","id":6573237,"name":"Pagels GmbH & Co. KG","phone":"02361-92370","email":"bestecke@pagels.de","address":"Halterner Straße 27","city":"Recklinghausen","postal":"45657","priority":1},{"lat":"52.4986921","lng":"13.4467842","id":6573239,"name":"Heipl Berlin","phone":"03069817145","email":"sabine@heiplberlin.com","address":"Schlesische Strasse 30","city":"Berlin","postal":"10997","priority":1},{"lat":"48.1617954","lng":"11.5856249","id":6573240,"name":"bella natura fair fashion","phone":"089-33056060","email":"bella-natura@gmx.de","address":"Herzogstr. 1 ","city":"München","postal":"80802","priority":1},{"lat":"47.2151885","lng":"14.8274245","id":6573242,"name":"Weltladen Knittelfeld","phone":"0043-351248362","email":"knittelfeld@weltladen.at","address":"Kapuzinerplatz 9","city":"Knittelfeld","postal":"8720","priority":1},{"lat":"55.511466","lng":"9.983601","id":6573244,"name":"Bro Gårdbutik","phone":"+45 2230 5009","email":"brogaardbutik@gmail.com","address":"Åbakkevej 57, Bro","city":"Brenderup","postal":"5464","priority":1},{"lat":"49.4950111","lng":"8.4547474","id":6573245,"name":"RobinKruso","phone":"0621\/17026-26","email":"wohnen@robin-kruso.de","address":"Verbindungskanal Linkes Ufer 20-22","city":"Mannheim","postal":"68159","priority":1},{"lat":"47.8538047","lng":"12.345306","id":6573248,"name":"Amon UG haftungsbeschränkt","phone":"08051 9626460","email":"info@amon.store","address":"Wendelsteinstraße 2","city":"Prien a. Chiemsee","postal":"83209","priority":1},{"lat":"52.3714733","lng":"9.7379974","id":6573250,"name":"Earth & Sky - the green shop GmbH","phone":"0511 33634800","email":"rita.brunsmann@earthandskyshop.de","address":"Röselerstr. 2","city":"Hannover","postal":"30159","priority":1},{"lat":"47.514256","lng":"10.2788475","id":6573252,"name":"fashion for friends","phone":"+49 151 53788164","email":"fashion@f4f.cc","address":"Blumenstr. 2","city":"Sonthofen","postal":"87527","priority":1},{"lat":"53.5604197","lng":"9.9634429","id":6573254,"name":"Selekta Reggae","phone":"040 430 8839","email":"fashion@selekta-shop.de","address":"Schulterblatt 18","city":"Hamburg","postal":"20357","priority":1},{"lat":"49.7998023","lng":"8.9924599","id":6573256,"name":"Casa Luisa","phone":"06163-937474","email":"info@luisekuchar.de","address":"Groß-Umstädter-Str. 12","city":"Höchst i Odw","postal":"64739","priority":1},{"lat":"51.3149476","lng":"9.4662349","id":6573258,"name":"MERU","phone":"0561-777108","email":"info@meru.de","address":"Lassallestr. 11","city":"Kassel, Hess","postal":"34119","priority":1},{"lat":"53.9560342","lng":"14.1696909","id":6573260,"name":"Taschen Lust","phone":"+49 (0) 38378 799882","email":"info@taschenlust.com","address":"Strandpromenade 1","city":"Seebad Heringsdorf","postal":"17424","priority":1},{"lat":"48.77185","lng":"9.17449","id":6573262,"name":"Kallas fashion with soul","phone":"0711\/2207976","email":"info@kallas-stuttgart.de","address":"Tübinger Str. 19a","city":"Stuttgart","postal":"70178","priority":1},{"lat":"49.6409314","lng":"8.4575013","id":6573264,"name":"Leder-Deutsch","phone":"06206 6108+ Fax","email":"lederdeutsch@gmx.de","address":"Marktstr. 16","city":"Bürstadt","postal":"68642","priority":1},{"lat":"50.8142007","lng":"8.768203","id":6573266,"name":"Ketzerbach 12 Wohn-Accessoires","phone":"06421 66635","email":"info@ketzerbach12.de","address":"Ketzerbach 12","city":"Marburg","postal":"35037","priority":1},{"lat":"50.8312811","lng":"12.8972051","id":6573267,"name":"HAAMIT Papeterie","phone":"0371 4790213","email":"mail@goetz-weigel.de","address":"Ulmenstr. 61","city":"Chemnitz, Sachs","postal":"09112","priority":1},{"lat":"48.1043061","lng":"11.7657602","id":6573269,"name":"amabile concept store","phone":"08106 2100828","email":"mh@amabile-conceptstore.de","address":"Zugspitzstraße 4a","city":"Vaterstetten","postal":"85591","priority":1},{"lat":"51.50249","lng":"10.79458","id":6573270,"name":"Kais","phone":"03631 601569","email":"kaiskornmarkt3@gmail.com","address":"Kornmarkt 3","city":"Nordhausen","postal":"99734","priority":1},{"lat":"51.3563073","lng":"7.4716947","id":6573273,"name":"Möbel Krebeck","phone":"02331-26161","email":"moebel.krebeck@web.de","address":"Goldbergstr. 7","city":"Hagen, Westf","postal":"58095","priority":1},{"lat":"51.2594397","lng":"7.1467335","id":6573274,"name":"George's Lifestyle Leder","phone":"0202 306803","email":"moraidis@online.de","address":"Friedrichstrasse 65","city":"Wuppertal","postal":"42105","priority":1},{"lat":"50.5836589","lng":"8.672885","id":6573276,"name":"Das Herrengut","phone":"0641-97879956 ","email":"till@das-herrengut.de","address":"Seltersweg 35","city":"Gießen, Lahn","postal":"35390","priority":1},{"lat":"52.280382","lng":"7.4453246","id":6573278,"name":"Rohlmann GmbH Bürobedarf","phone":"05971\/987550","email":"buchhaltung@buero-rohlmann.de","address":"Emsstraße 92-94","city":"Rheine","postal":"48429","priority":1},{"lat":"50.7504446","lng":"9.2724416","id":6573279,"name":"Modetick No. 2","phone":"06631-72218","email":"modetickNo.2@t-online.de","address":"Obere Fulder Gasse 2","city":"Alsfeld","postal":"36304","priority":1},{"lat":"50.5553","lng":"8.50109","id":6573281,"name":"Filou am Dom","phone":"06441\/45286","email":"filou-wetzlar@t-online.de","address":"Schwarzadlergasse 1a","city":"Wetzlar","postal":"35578","priority":1},{"lat":"50.5533148","lng":"8.5008529","id":6573283,"name":"Geist Lederwaren","phone":"06441 42356","email":"leder.geist@gmx.de","address":"Silhöfer Str. 21","city":"Wetzlar","postal":"35578","priority":1},{"lat":"47.661761","lng":"9.1762832","id":6573285,"name":"Deinlers Ledermanufaktur","phone":"07531-29192","email":"mail@deinlers.de","address":"Zollernstr. 13","city":"Konstanz","postal":"78462","priority":1},{"lat":"55.699287","lng":"12.5895179","id":6573287,"name":"a simple life","phone":"+45 26858969","email":"products@asimplelife.dk","address":"Willemoesgade 74","city":"Kobenhavn","postal":"2100","priority":1},{"lat":"50.7222305","lng":"8.7958453","id":6573289,"name":"Das Wohngut","phone":"06424 9219333","email":"info@das-wohngut.de","address":"In der Struth 6","city":"Ebsdorfergrund","postal":"35085","priority":1},{"lat":"50.774192","lng":"6.0839875","id":6573291,"name":"Designermode T.T. Gmbh","phone":"0241 1824770","email":"info@tesoro-shop.de","address":"Münsterplatz 12","city":"Aachen","postal":"52062","priority":1},{"lat":"51.4810111","lng":"7.4075675","id":6573292,"name":"Fruchtbare Erde GmbH","phone":"0231-9766936","email":"kontakt@fruchtbare-erde.de","address":"Stockumer Str. 412","city":"Dortmund","postal":"44227","priority":1},{"lat":"52.7068746","lng":"-2.7520873","id":6573294,"name":"Hibiskus","phone":"01743-588690","email":"hibiscushop84@gmail.com","address":"84 Wyle Cop","city":"Shrewsbury","postal":"SY1 1UT","priority":1},{"lat":"49.0195207","lng":"12.0947987","id":6573296,"name":"Jala","phone":"0941-59977588","email":"jala-info@web.de","address":"Untere Bachgasse 6","city":"Regensburg","postal":"93047","priority":1},{"lat":"48.1671054","lng":"8.6250475","id":6573298,"name":"Casa Cappelli","phone":"0741 \/ 942 24 76","email":"info@casa-cappelli.de","address":"Hochmaiengasse 1","city":"Rottweil","postal":"78628","priority":1},{"lat":"50.13651","lng":"8.91558","id":6573300,"name":"Maßatelier Christiane Lieber","phone":"06181 253140","email":"info@massatelier-lieber.de","address":"Hospitalstr. 3","city":"Hanau","postal":"63450","priority":1},{"lat":"41.1125738","lng":"1.2506181","id":6573302,"name":"Coriumimport SL","phone":"+34 615436270","email":"kontakt@corium-hannover.com","address":"Calle Tarragona 5","city":"Tarragona","postal":"43764","priority":1},{"lat":"49.8612216","lng":"8.6531782","id":6573305,"name":"Ge.schm.ei.de","phone":"0177-4610147","email":"info@ge-schm-ei.de","address":"Hermannstr. 1 ","city":"Darmstadt","postal":"64285","priority":1},{"lat":"49.4683987","lng":"7.7372448","id":6573306,"name":"Nora-Johanna Gebhardt","phone":"0176-30775893","email":"info@store291.de","address":"Kreuzhofstr. 9 b","city":"Kaiserslautern","postal":"67659","priority":1},{"lat":"50.8089031","lng":"8.7698965","id":6573308,"name":"Foster Naturkleidung","phone":"06421-166741","email":"persy@lebensspur-coaching.de","address":"Barfüßerstr. 53","city":"Marburg","postal":"35037","priority":1},{"lat":"50.1175296","lng":"8.8162064","id":6573310,"name":"KIKI KISS KISS","phone":"06108 8255355","email":"hello@kiki-kiss-kiss.com","address":"Borsigstraße 15","city":"Mühlheim am Main","postal":"63165","priority":1},{"lat":"51.5741886","lng":"8.105441","id":6573312,"name":"Lederwaren Faber GmbH","phone":"02921-13055","email":"info@faber-lederwaren.de","address":"Brüderstr.13a","city":"Soest","postal":"59494","priority":1},{"lat":"53.7783394","lng":"9.6130758","id":6573314,"name":"Wohndetail","phone":"04121-50779","email":"wohndetail@gmx.de","address":"Buchenweg 30","city":"Kiebitzreihe","postal":"25368","priority":1},{"lat":"48.7771165","lng":"9.2552548","id":6573315,"name":"Raumdeesign Stuttgart","phone":"0711-33693517","email":"verkauf@raumdeesign.de","address":"Mettinger Str. 20","city":"Stuttgart","postal":"70327","priority":1},{"lat":"53.7882487","lng":"9.4221694","id":6573317,"name":"Lädchen am Fleth","phone":"04124\/932938","email":"laedchenamfleth@hotmail.de","address":"Am Fleth 25","city":"Glückstadt","postal":"25348","priority":1},{"lat":"47.7239035","lng":"9.2302005","id":6573320,"name":"Souvenir am See","phone":"0162 8505352","email":"lederschaefer@aol.com","address":"Seefeld Str. 16","city":"Uhldingen-Mühlhofen","postal":"88690","priority":1},{"lat":"47.3776343","lng":"9.5395716","id":6573321,"name":"Claro Weltladen","phone":"0041-717556978","email":"claro@bluewin.ch","address":"Marktgasse 21","city":"Altstätten","postal":"9450","priority":1},{"lat":"48.1555143","lng":"11.5318779","id":6573324,"name":"Frau Lange","phone":"089 13 92 77 80","email":"kontakt@fraulange.com","address":"Aldringenstraße 1","city":"München","postal":"80639","priority":1},{"lat":"53.1743931","lng":"10.2381527","id":6573325,"name":"Heidekönigin Textil Handels-GmbH","phone":"04132-952996-1","email":"doerte.reimers@heidekoenigin.de","address":"Im Krüss 1","city":"Oldendorf (Luhe)","postal":"21385","priority":1},{"lat":"50.2239505","lng":"8.622477","id":6573327,"name":"Casabella Schuhmode","phone":" +496172 690984","email":"service@casabella-schuhmode.de","address":"Rathausplatz 1","city":"Bad Homburg v d Höhe","postal":"61348","priority":1},{"lat":"48.88829","lng":"8.6967509","id":6573329,"name":"Shoe.Box","phone":"07231-6037991","email":"info@shoe-box.de","address":"Dillsteiner Str. 18","city":"Pforzheim","postal":"75173","priority":1},{"lat":"47.8062446","lng":"7.6304277","id":6573331,"name":"Land Art","phone":"07631 7938128","address":"Marktstr. 2","city":"Müllheim, Baden","postal":"79379","priority":1},{"lat":"48.1281367","lng":"11.5952292","id":6573333,"name":"Maximilian Mode für Männer","phone":"089 44900250","email":"wpmoden@gmail.com","address":"Metzstr. 1","city":"München","postal":"81667","priority":1},{"lat":"38.1076339","lng":"15.6465928","id":6573334,"name":"Anteprima Uomo","phone":"0039-0965027543","email":"anteprimauomorc@gmail.com","address":"Via Filippini 73","city":"Reggio Calabria","postal":"89100","priority":1},{"lat":"49.4096483","lng":"8.7040812","id":6573336,"name":"Vierling","phone":"06221 7252547","email":"gudrun@vierling.eu","address":"Theaterstr. 16","city":"Heidelberg, Neckar","postal":"69117","priority":1},{"lat":"48.12026","lng":"7.84882","id":6573338,"name":"Perla ","phone":"07641-9330350","email":"ruthart@gmx.de","address":"Cornelia-Passage 2","city":"Emmendingen","postal":"79312","priority":1},{"lat":"48.53179","lng":"8.07871","id":6573340,"name":"Elfen - Naht","phone":"07802 700082","email":"mail@elfennaht.de","address":"Thomaslohgasse 10","city":"Oberkirch, Baden","postal":"77704","priority":1},{"lat":"48.8943376","lng":"9.1905912","id":6573342,"name":"CHACHA-STORE","phone":"07141 1337934, 07531 363850","email":"info@chacha.eu","address":"Seestraße 19","city":"Ludwigsburg, Württ","postal":"71638","priority":1},{"lat":"49.442367","lng":"7.7682918","id":6573344,"name":"Spielkiste","phone":"0631-93569","email":"info@spielkiste-kl.de","address":"Kerststr. 20","city":"Kaiserslautern","postal":"67655","priority":1},{"lat":"53.2305398","lng":"7.4581235","id":6573346,"name":"Enno Hinrichs","phone":"0491 928040","email":"info@enno-hinrichs.de","address":"Mühlenstraße 85","city":"Leer","postal":"26789","priority":1},{"lat":"53.25062","lng":"10.40974","id":6573348,"name":"Rothardt Leder GmbH & Co.KG","phone":"04131 31324","email":"info@rothardt-leder.de","address":"An den Brodbänken 9-113","city":"Lüneburg","postal":"21335","priority":1},{"lat":"47.9957218","lng":"7.8496169","id":6573349,"name":"Freiburger Lederhaus","phone":"0761 31201","email":"info@freiburger-leder-haus.de","address":"Rathausgasse 4","city":"Freiburg","postal":"79098","priority":1},{"lat":"51.500159","lng":"7.5713501","id":6573350,"name":"Hausfelder H. Tondera GmbH","phone":"0231-9453480","email":"info@hausfelder.de","address":"Holtchen 7","city":"Dortmund","postal":"44287","priority":1},{"lat":"47.9835877","lng":"8.8155961","id":6573353,"name":"Ludwig Kohler-Gehring GmbH","phone":"07461 2236","email":"asutter@kohler-gehring.info","address":"Bahnhofstr. 31","city":"Tuttlingen","postal":"78532","priority":1},{"lat":"48.7416019","lng":"9.3082117","id":6573355,"name":"Wilh. Heiges Nachf.GmbH & Co K","phone":"0711 39694615","email":"info@heiges.de","address":"Fischbrunnenstr. 3","city":"Esslingen","postal":"73728","priority":1},{"lat":"46.9483359","lng":"7.4430784","id":6573357,"name":"Gygax Trends in Leder AG","phone":"031-3112561","address":"Spitalgasse 4","city":"Bern","postal":"3011","priority":1},{"lat":"49.1992228","lng":"8.1151371","id":6573359,"name":"Horn GmbH & Co. KG","phone":"06341-919293","email":"buchhaltung@lederhorn.de","address":"Königsstr. 15-19","city":"Landau","postal":"76829","priority":1},{"lat":"48.8967068","lng":"9.1899992","id":6573361,"name":"Wilh. Heiges GmbH & Co KG","phone":"07141-95 65 617","address":"Kirchstr. 7","city":"Ludwigsburg","postal":"71634","priority":1},{"lat":"51.8278844","lng":"9.4481595","id":6573363,"name":"Reese-Lederwaren OHG","phone":"05531 7918","email":"reese.lederwaren@gmx.net","address":" Obere Str. 20","city":"Holzminden","postal":"37603","priority":1},{"lat":"52.84504","lng":"8.04023","id":6573364,"name":"Carl Holterhus e. Kfm.","phone":"04471 2166","email":"info@leder-holterhus.de","address":"Lange Str. 31-33","city":"Cloppenburg","postal":"49661","priority":1},{"lat":"47.7828498","lng":"9.6136959","id":6573366,"name":"Nabholz-Lederwaren","phone":"0751-23660","email":"nabholz-lederwaren@t-online.de","address":"Marienplatz 40","city":"Ravensburg","postal":"88212","priority":1},{"lat":"52.48242","lng":"10.54498","id":6573368,"name":"Faber Lederwaren","phone":"05371-3151","address":"Schillerplatz 4","city":"Gifhorn","postal":"38518","priority":1},{"lat":"48.1285136","lng":"11.6025168","id":6573370,"name":"Kfh. am Ostbahnhof GmbH","phone":"089-45855434","email":"info@ek-servicegroup.de","address":"Orleansplatz 3","city":"München","postal":"81667","priority":1},{"lat":"50.5847736","lng":"8.6738513","id":6573371,"name":"Leder Meid GmbH","phone":"+49 \/ (0)641\/7102-1","email":"office@ledermeid-giessen.de","address":"Seltersweg 6","city":"Gießen","postal":"35390","priority":1},{"lat":"47.6868773","lng":"9.8335004","id":6573373,"name":"Rupp OHG Lederwaren","phone":"07522 971240","email":"lederwaren@rupp-wangen.de","address":"Herrenstraße 17","city":"Wangen","postal":"88239","priority":1},{"lat":"50.91759","lng":"13.34371","id":6573374,"name":"Stilecht - Lederwaren","phone":"03731-22597","email":"info@stilecht-lederwaren.de","address":"Enge Gasse 2","city":"Freiberg","postal":"09599","priority":1},{"lat":"49.0194562","lng":"12.0957839","id":6573376,"name":"Lederwaren Umsonst KG","phone":"0941-51722\/0170-8108555","email":"schwabenbauer@arcor.de","address":"Wahlenstr. 11","city":"Regensburg","postal":"93047","priority":1},{"lat":"51.5051491","lng":"14.6408352","id":6573378,"name":"Hemmo Schuh-und Lederwaren","phone":"03576 207788","email":"tobias.hemmo@web.de","address":"Bahnhofstraße 5","city":"Weißwasser","postal":"02943","priority":1},{"lat":"50.8048038","lng":"12.8605385","id":6573381,"name":"SW Leder GmbH ","phone":"0371-8080299","email":"lederpalette@aol.com","address":"Im Neefepark 3","city":"Chemnitz, Sachs","postal":"09116","priority":1},{"lat":"51.1808933","lng":"14.4314956","id":6573382,"name":"Schmautz Lederwaren","phone":"03591\/43405","email":"info@schmautz-bautzen.de","address":"Steinstraße 18","city":"Bautzen","postal":"02625","priority":1},{"lat":"51.2638765","lng":"13.9035811","id":6573384,"name":"Lederwaren Kreische GmbH","phone":"035795-42355","email":"winfried.kreische@t-online.de","address":"Markt 11","city":"Königsbrück","postal":"01936","priority":1},{"lat":"51.86627","lng":"12.64467","id":6573386,"name":"Schwab Lederwaren","phone":"03491 401039","email":"ledershopschwab@arcor.de","address":"Collegienstr. 3","city":"Wittenberg","postal":"06886","priority":1},{"lat":"50.4347182","lng":"8.6711703","id":6573388,"name":"Leder-Leibling","phone":"+49 \/ (0)6033\/65566","address":"Wetzlarer Str. 16","city":"Butzbach","postal":"35510","priority":1},{"lat":"50.1209156","lng":"8.8357307","id":6573391,"name":"Schuh- und Lederwarenhaus Coy-Grysczyk","phone":"06108-71373","address":"Bahnhofstr. 62","city":"Mühlheim","postal":"63165","priority":1},{"lat":"50.3299723","lng":"11.7073622","id":6573392,"name":"Leder Ziehr","phone":"09282\/7524","address":"Hauptstr. 9","city":"Naila","postal":"95119","priority":1},{"lat":"49.7372487","lng":"10.1619489","id":6573393,"name":"BAGS for BIRDS","phone":"09321-7154","email":"info@bags-for-birds.de","address":"Leidenhof 1","city":"Kitzingen","postal":"97318","priority":1},{"lat":"50.8746509","lng":"8.0165062","id":6573395,"name":"Leder-Jäger GmbH","phone":"0271-2334132","email":"invoice@lederjaeger.de","address":"Am Bahnhof 23","city":"Siegen","postal":"57072","priority":1},{"lat":"49.9743719","lng":"9.1471287","id":6573397,"name":"Leder Schreiner","phone":"06021\/22545","email":"leder-schreiner@t-online.de","address":"Wermbachstr. 3","city":"Aschaffenburg","postal":"63739","priority":1},{"lat":"51.0229008","lng":"11.5138376","id":6573399,"name":"Behr Lederwaren","phone":"03644 553101","address":"Schleiergasse 5","city":"Apolda","postal":"99510","priority":1},{"lat":"47.9514","lng":"8.49599","id":6573401,"name":"Obergfell Lederwaren","phone":"0771 2906+Fax","email":"info@lederwaren-obergfell.de","address":"Wasserstraße 3","city":"Donaueschingen","postal":"78166","priority":1},{"lat":"48.226204","lng":"8.3850861","id":6573403,"name":"Krön e.K.Lederwaren","phone":"07422-20835","email":"info@kroen-lederwaren.de","address":"Hauptstraße 17-19","city":"Schramberg","postal":"78713","priority":1},{"lat":"49.03651","lng":"8.70804","id":6573404,"name":"Blickfang","phone":"+497252562985","email":"info@blickfang-bretten.de","address":"Marktplatz 12","city":"Bretten, Baden","postal":"75015","priority":1},{"lat":"50.2328563","lng":"11.3236203","id":6573406,"name":"Josef Kestel GmbH Lederwaren","phone":"09261 3359\/2521","email":"info@leder-kestel.de","address":"Kulmbacher Str 40","city":"Kronach","postal":"96317","priority":1},{"lat":"50.5804032","lng":"13.0052105","id":6573409,"name":"Jürgen Thiele Schuhe + Leder","phone":"03733 42318","email":"thiele@schuh-leder.de","address":"Wolkensteiner Str. 12","city":"Annaberg-Buchholz","postal":"09456","priority":1},{"lat":"49.462629","lng":"8.9868008","id":6573411,"name":"Leder Exquisit","phone":"06271 3031","email":"lederexquisit@t-online.de","address":"Bahnhofstraße 1","city":"Eberbach, Baden","postal":"69412","priority":1},{"lat":"51.0681717","lng":"13.7759293","id":6573412,"name":"Georgi Lederwaren GmbH","phone":"0351-82108420","email":"info@georgi-lederwaren.de","address":"Waldschlößchenstr. 3","city":"Dresden","postal":"01099","priority":1},{"lat":"48.2565714","lng":"13.0359689","id":6573415,"name":"Andreas Bautenbacher e.U.","phone":"0043-7722-63457","email":"leder@bautenbacher.at","address":"Salzburger-Vorstadt 11","country":"Austria","city":"Braunau","postal":"5280","priority":1},{"lat":"51.17513","lng":"4.1683219","id":6573416,"name":"Timmermans N.V. Lederwaren","phone":"+32 3 7807940","email":"info@timmermans.be","address":"Entrepotstraat 3","country":"Netherlands","city":"Sint-Niklaas","postal":"9100","priority":1},{"lat":"50.8757872","lng":"12.0768616","id":6573418,"name":"Tasche & Co","email":"post@lederwaren-mischek.de","address":"Heinrichstr. 30","country":"Germany","city":"Gera","postal":"07545","priority":1}]